{"type":"Topology","arcs":[],"objects":{"pasted":{"type":"GeometryCollection","geometries":[{"type":"Point","coordinates":[-7.327239492,43.02953224],"properties":{"name":"Xulgado de Paz de Castroverde","ID_UNIDAD_JUDICIAL":"2701146001","DESC_UNIDAD_JUDICIAL":"Xulgado de Paz de Castroverde","ID_CONCELLO_SEDE":"27011","ID_PARTIDO_JUDICIAL":"2703","ID_TIPO_UNIDAD":"46","DESC_UNIDAD_JUDICIAL_ES":"Juzgado de Paz de Castroverde"}},{"type":"Point","coordinates":[-7.768863225,42.60746956],"properties":{"name":"Oficina Registro y Reparto de Chantada","ID_UNIDAD_JUDICIAL":"2701641000","DESC_UNIDAD_JUDICIAL":"Oficina Registro y Reparto de Chantada","ID_CONCELLO_SEDE":"27016","ID_PARTIDO_JUDICIAL":"2702","ID_TIPO_UNIDAD":"41","DESC_UNIDAD_JUDICIAL_ES":"Oficina Registro y Reparto de Chantada"}},{"type":"Point","coordinates":[-7.067361111,43.12638889],"properties":{"name":"Xulgado de Primeira Instancia e Instrucción Nº1 de A Fonsagrada","ID_UNIDAD_JUDICIAL":"2701841001","DESC_UNIDAD_JUDICIAL":"Xulgado de Primeira Instancia e Instrucción Nº1 de A Fonsagrada","ID_CONCELLO_SEDE":"27018","ID_PARTIDO_JUDICIAL":"2708","ID_TIPO_UNIDAD":"41","DESC_UNIDAD_JUDICIAL_ES":"Juzgado de Primera Instancia e Instrucción Nº1 de A Fonsagrada"}},{"type":"Point","coordinates":[-7.2987936,43.47091601],"properties":{"name":"Xulgado de Paz de Lourenzá","ID_UNIDAD_JUDICIAL":"2702746001","DESC_UNIDAD_JUDICIAL":"Xulgado de Paz de Lourenzá","ID_CONCELLO_SEDE":"27027","ID_PARTIDO_JUDICIAL":"2701","ID_TIPO_UNIDAD":"46","DESC_UNIDAD_JUDICIAL_ES":"Juzgado de Paz de Lourenzá"}},{"type":"Point","coordinates":[-7.555755439,43.00988951],"properties":{"name":"Oficina Rexistro e Reparto de Lugo","ID_UNIDAD_JUDICIAL":"2702841000","DESC_UNIDAD_JUDICIAL":"Oficina Rexistro e Reparto de Lugo","ID_CONCELLO_SEDE":"27028","ID_PARTIDO_JUDICIAL":"2703","ID_TIPO_UNIDAD":"41","DESC_UNIDAD_JUDICIAL_ES":"Oficina de Registro y Reparto de Lugo"}},{"type":"Point","coordinates":[-7.555755439,43.00988951],"properties":{"name":"Xulgado de Primeira Instancia e Instrucción  Nº 4 de Lugo","ID_UNIDAD_JUDICIAL":"2702841004","DESC_UNIDAD_JUDICIAL":"Xulgado de Primeira Instancia e Instrucción  Nº 4 de Lugo","ID_CONCELLO_SEDE":"27028","ID_PARTIDO_JUDICIAL":"2703","ID_TIPO_UNIDAD":"41","DESC_UNIDAD_JUDICIAL_ES":"Juzgado de Primera Instancia e Instruccion Nº 4 de Lugo"}},{"type":"Point","coordinates":[-7.555755439,43.00988951],"properties":{"name":"Xulgado do Penal Nº 1 de Lugo","ID_UNIDAD_JUDICIAL":"2702851001","DESC_UNIDAD_JUDICIAL":"Xulgado do Penal Nº 1 de Lugo","ID_CONCELLO_SEDE":"27028","ID_PARTIDO_JUDICIAL":"2703","ID_TIPO_UNIDAD":"51","DESC_UNIDAD_JUDICIAL_ES":"Juzgado de lo Penal Nº 1 de Lugo"}},{"type":"Point","coordinates":[-7.292075967,43.21280627],"properties":{"name":"Xulgado de Paz de Meira","ID_UNIDAD_JUDICIAL":"2702946001","DESC_UNIDAD_JUDICIAL":"Xulgado de Paz de Meira","ID_CONCELLO_SEDE":"27029","ID_PARTIDO_JUDICIAL":"2703","ID_TIPO_UNIDAD":"46","DESC_UNIDAD_JUDICIAL_ES":"Juzgado de Paz de Meira"}},{"type":"Point","coordinates":[-7.751084528,42.27958401],"properties":{"name":"Xulgado de Paz de Paderne De Allariz","ID_UNIDAD_JUDICIAL":"3205546001","DESC_UNIDAD_JUDICIAL":"Xulgado de Paz de Paderne De Allariz","ID_CONCELLO_SEDE":"32055","ID_PARTIDO_JUDICIAL":"3201","ID_TIPO_UNIDAD":"46","DESC_UNIDAD_JUDICIAL_ES":"Juzgado de Paz de Paderne De Allariz"}},{"type":"Point","coordinates":[-8.158473425,42.13863906],"properties":{"name":"Xulgado de Paz de Padrenda","ID_UNIDAD_JUDICIAL":"3205646001","DESC_UNIDAD_JUDICIAL":"Xulgado de Paz de Padrenda","ID_CONCELLO_SEDE":"32056","ID_PARTIDO_JUDICIAL":"3208","ID_TIPO_UNIDAD":"46","DESC_UNIDAD_JUDICIAL_ES":"Juzgado de Paz de Padrenda"}},{"type":"Point","coordinates":[-7.571421228,42.3832785],"properties":{"name":"Xulgado de Paz de Parada De Sil","ID_UNIDAD_JUDICIAL":"3205746001","DESC_UNIDAD_JUDICIAL":"Xulgado de Paz de Parada De Sil","ID_CONCELLO_SEDE":"32057","ID_PARTIDO_JUDICIAL":"3201","ID_TIPO_UNIDAD":"46","DESC_UNIDAD_JUDICIAL_ES":"Juzgado de Paz de Parada De Sil"}},{"type":"Point","coordinates":[-7.799997247,42.34655247],"properties":{"name":"Xulgado de Paz de O Pereiro De Aguiar","ID_UNIDAD_JUDICIAL":"3205846001","DESC_UNIDAD_JUDICIAL":"Xulgado de Paz de O Pereiro De Aguiar","ID_CONCELLO_SEDE":"32058","ID_PARTIDO_JUDICIAL":"3201","ID_TIPO_UNIDAD":"46","DESC_UNIDAD_JUDICIAL_ES":"Juzgado de Paz de O Pereiro De Aguiar"}},{"type":"Point","coordinates":[-7.124488325,42.38262727],"properties":{"name":"Xulgado de Paz de Petín","ID_UNIDAD_JUDICIAL":"3206046001","DESC_UNIDAD_JUDICIAL":"Xulgado de Paz de Petín","ID_CONCELLO_SEDE":"32060","ID_PARTIDO_JUDICIAL":"3206","ID_TIPO_UNIDAD":"46","DESC_UNIDAD_JUDICIAL_ES":"Juzgado de Paz de Petín"}},{"type":"Point","coordinates":[-8.006938564,42.49952423],"properties":{"name":"Xulgado de Paz de Piñor","ID_UNIDAD_JUDICIAL":"3206146001","DESC_UNIDAD_JUDICIAL":"Xulgado de Paz de Piñor","ID_CONCELLO_SEDE":"32061","ID_PARTIDO_JUDICIAL":"3207","ID_TIPO_UNIDAD":"46","DESC_UNIDAD_JUDICIAL_ES":"Juzgado de Paz de Piñor"}},{"type":"Point","coordinates":[-7.847330586,42.01874423],"properties":{"name":"Xulgado de Paz de Porqueira","ID_UNIDAD_JUDICIAL":"3206246001","DESC_UNIDAD_JUDICIAL":"Xulgado de Paz de Porqueira","ID_CONCELLO_SEDE":"32062","ID_PARTIDO_JUDICIAL":"3203","ID_TIPO_UNIDAD":"46","DESC_UNIDAD_JUDICIAL_ES":"Juzgado de Paz de Porqueira"}},{"type":"Point","coordinates":[-7.251921653,42.34069393],"properties":{"name":"Xulgado de Primeira Instancia e Instrucción Nº1 de A Pobra De Trives","ID_UNIDAD_JUDICIAL":"3206341001","DESC_UNIDAD_JUDICIAL":"Xulgado de Primeira Instancia e Instrucción Nº1 de A Pobra De Trives","ID_CONCELLO_SEDE":"32063","ID_PARTIDO_JUDICIAL":"3204","ID_TIPO_UNIDAD":"41","DESC_UNIDAD_JUDICIAL_ES":"Juzgado de Primera Instancia e Instrucción Nº1 de A Pobra De Trives"}},{"type":"Point","coordinates":[-7.890354261,42.78264171],"properties":{"name":"Xulgado de Paz de Antas De Ulla","ID_UNIDAD_JUDICIAL":"2700346001","DESC_UNIDAD_JUDICIAL":"Xulgado de Paz de Antas De Ulla","ID_CONCELLO_SEDE":"27003","ID_PARTIDO_JUDICIAL":"2702","ID_TIPO_UNIDAD":"46","DESC_UNIDAD_JUDICIAL_ES":"Juzgado de Paz de Antas De Ulla"}},{"type":"Point","coordinates":[-8.546107172,42.87999954],"properties":{"name":"Xulgado de Primeira Instancia e Instrucción  Nº 8 de Santiago De Compostela","ID_UNIDAD_JUDICIAL":"1507841008","DESC_UNIDAD_JUDICIAL":"Xulgado de Primeira Instancia e Instrucción  Nº 8 de Santiago De Compostela","ID_CONCELLO_SEDE":"15078","ID_PARTIDO_JUDICIAL":"1502","ID_TIPO_UNIDAD":"41","DESC_UNIDAD_JUDICIAL_ES":"Juzgado de Primera Instancia e Instruccion Nº 8 de Santiago De Compostela"}},{"type":"Point","coordinates":[-8.546107172,42.87999954],"properties":{"name":"Xulgado de Primeira Instancia e Instrucción  Nº 7 de Santiago De Compostela","ID_UNIDAD_JUDICIAL":"1507841007","DESC_UNIDAD_JUDICIAL":"Xulgado de Primeira Instancia e Instrucción  Nº 7 de Santiago De Compostela","ID_CONCELLO_SEDE":"15078","ID_PARTIDO_JUDICIAL":"1502","ID_TIPO_UNIDAD":"41","DESC_UNIDAD_JUDICIAL_ES":"Juzgado de Primera Instancia e Instruccion Nº 7 de Santiago De Compostela"}},{"type":"Point","coordinates":[-8.164047253,42.92692553],"properties":{"name":"Oficina Registro y Reparto de Arzúa","ID_UNIDAD_JUDICIAL":"1500641000","DESC_UNIDAD_JUDICIAL":"Oficina Registro y Reparto de Arzúa","ID_CONCELLO_SEDE":"15006","ID_PARTIDO_JUDICIAL":"1508","ID_TIPO_UNIDAD":"41","DESC_UNIDAD_JUDICIAL_ES":"Oficina Registro y Reparto de Arzúa"}},{"type":"Point","coordinates":[-8.210831839,43.2791139],"properties":{"name":"Xulgado de Primeira Instancia e Instrucción Nº1 de Betanzos","ID_UNIDAD_JUDICIAL":"1500941001","DESC_UNIDAD_JUDICIAL":"Xulgado de Primeira Instancia e Instrucción Nº1 de Betanzos","ID_CONCELLO_SEDE":"15009","ID_PARTIDO_JUDICIAL":"1501","ID_TIPO_UNIDAD":"41","DESC_UNIDAD_JUDICIAL_ES":"Juzgado de Primera Instancia e Instrucción Nº1 de Betanzos"}},{"type":"Point","coordinates":[-8.882717944,42.64705741],"properties":{"name":"Xulgado de Paz de Boiro","ID_UNIDAD_JUDICIAL":"1501146001","DESC_UNIDAD_JUDICIAL":"Xulgado de Paz de Boiro","ID_CONCELLO_SEDE":"15011","ID_PARTIDO_JUDICIAL":"1510","ID_TIPO_UNIDAD":"46","DESC_UNIDAD_JUDICIAL_ES":"Juzgado de Paz de Boiro"}},{"type":"Point","coordinates":[-8.689273431,43.21338372],"properties":{"name":"Xulgado de Primeira Instancia e Instrucción Nº1 de Carballo","ID_UNIDAD_JUDICIAL":"1501941001","DESC_UNIDAD_JUDICIAL":"Xulgado de Primeira Instancia e Instrucción Nº1 de Carballo","ID_CONCELLO_SEDE":"15019","ID_PARTIDO_JUDICIAL":"1506","ID_TIPO_UNIDAD":"41","DESC_UNIDAD_JUDICIAL_ES":"Juzgado de Primera Instancia e Instrucción Nº1 de Carballo"}},{"type":"Point","coordinates":[-9.190236383,42.95566461],"properties":{"name":"Xulgado de Paz de Cee","ID_UNIDAD_JUDICIAL":"1502346001","DESC_UNIDAD_JUDICIAL":"Xulgado de Paz de Cee","ID_CONCELLO_SEDE":"15023","ID_PARTIDO_JUDICIAL":"1507","ID_TIPO_UNIDAD":"46","DESC_UNIDAD_JUDICIAL_ES":"Juzgado de Paz de Cee"}},{"type":"Point","coordinates":[-8.165334817,43.24987713],"properties":{"name":"Xulgado de Paz de Coirós","ID_UNIDAD_JUDICIAL":"1502746001","DESC_UNIDAD_JUDICIAL":"Xulgado de Paz de Coirós","ID_CONCELLO_SEDE":"15027","ID_PARTIDO_JUDICIAL":"1501","ID_TIPO_UNIDAD":"46","DESC_UNIDAD_JUDICIAL_ES":"Juzgado de Paz de Coirós"}},{"type":"Point","coordinates":[-8.395501936,43.37126587],"properties":{"name":"Sevizo Común de rexistro e reparto do Civil e Penal do TSXG de A Coruña","ID_UNIDAD_JUDICIAL":"1503031000","DESC_UNIDAD_JUDICIAL":"Sevizo Común de rexistro e reparto do Civil e Penal do TSXG de A Coruña","ID_CONCELLO_SEDE":"15030","ID_PARTIDO_JUDICIAL":"1504","ID_TIPO_UNIDAD":"31","DESC_UNIDAD_JUDICIAL_ES":"Servicio Común de registro y reparto de lo Civil y Penal del TSXG de A Coruña"}},{"type":"Point","coordinates":[-8.395501936,43.37126587],"properties":{"name":"Servizo Común de rexistro e reparto do Contencioso-Administrativo do TSXG de A Coruña","ID_UNIDAD_JUDICIAL":"1503033000","DESC_UNIDAD_JUDICIAL":"Servizo Común de rexistro e reparto do Contencioso-Administrativo do TSXG de A Coruña","ID_CONCELLO_SEDE":"15030","ID_PARTIDO_JUDICIAL":"1504","ID_TIPO_UNIDAD":"33","DESC_UNIDAD_JUDICIAL_ES":"Servicio Común de registro y reparto de lo Contencioso-Administrativo del TSXG de A Coruña"}},{"type":"Point","coordinates":[-8.395501936,43.37126587],"properties":{"name":"Sección nº 4 da Sala do Contencioso-Administrativo do TSXG de A Coruña","ID_UNIDAD_JUDICIAL":"1503033004","DESC_UNIDAD_JUDICIAL":"Sección nº 4 da Sala do Contencioso-Administrativo do TSXG de A Coruña","ID_CONCELLO_SEDE":"15030","ID_PARTIDO_JUDICIAL":"1504","ID_TIPO_UNIDAD":"33","DESC_UNIDAD_JUDICIAL_ES":"Sección nº 4 de la Sala de lo Contencioso-Administrativo del TSXG de A Coruña"}},{"type":"Point","coordinates":[-8.395501936,43.37126587],"properties":{"name":"Sección nº 4 da audiencia provincial de A Coruña","ID_UNIDAD_JUDICIAL":"1503037004","DESC_UNIDAD_JUDICIAL":"Sección nº 4 da audiencia provincial de A Coruña","ID_CONCELLO_SEDE":"15030","ID_PARTIDO_JUDICIAL":"1504","ID_TIPO_UNIDAD":"37","DESC_UNIDAD_JUDICIAL_ES":"Sección nº 4 de la audiencia provincial de A Coruña"}},{"type":"Point","coordinates":[-8.395501936,43.37126587],"properties":{"name":"Xulgado de Primeira Instancia Nº 3 de A Coruña","ID_UNIDAD_JUDICIAL":"1503042003","DESC_UNIDAD_JUDICIAL":"Xulgado de Primeira Instancia Nº 3 de A Coruña","ID_CONCELLO_SEDE":"15030","ID_PARTIDO_JUDICIAL":"1504","ID_TIPO_UNIDAD":"42","DESC_UNIDAD_JUDICIAL_ES":"Juzgado de Primera Instancia Nº 3 de A Coruña"}},{"type":"Point","coordinates":[-8.395501936,43.37126587],"properties":{"name":"Xulgado de Primeira Instancia Nº 7 de A Coruña","ID_UNIDAD_JUDICIAL":"1503042007","DESC_UNIDAD_JUDICIAL":"Xulgado de Primeira Instancia Nº 7 de A Coruña","ID_CONCELLO_SEDE":"15030","ID_PARTIDO_JUDICIAL":"1504","ID_TIPO_UNIDAD":"42","DESC_UNIDAD_JUDICIAL_ES":"Juzgado de Primera Instancia Nº 7 de A Coruña"}},{"type":"Point","coordinates":[-8.395501936,43.37126587],"properties":{"name":"Xulgado de Instrucción Nº 5 de A Coruña","ID_UNIDAD_JUDICIAL":"1503043005","DESC_UNIDAD_JUDICIAL":"Xulgado de Instrucción Nº 5 de A Coruña","ID_CONCELLO_SEDE":"15030","ID_PARTIDO_JUDICIAL":"1504","ID_TIPO_UNIDAD":"43","DESC_UNIDAD_JUDICIAL_ES":"Juzgado de Instrucción Nº 5 de A Coruña"}},{"type":"Point","coordinates":[-8.395501936,43.37126587],"properties":{"name":"Xulgado do Social Nº 3 de A Coruña","ID_UNIDAD_JUDICIAL":"1503044003","DESC_UNIDAD_JUDICIAL":"Xulgado do Social Nº 3 de A Coruña","ID_CONCELLO_SEDE":"15030","ID_PARTIDO_JUDICIAL":"1504","ID_TIPO_UNIDAD":"44","DESC_UNIDAD_JUDICIAL_ES":"Juzgado de lo Social Nº 3 de A Coruña"}},{"type":"Point","coordinates":[-8.395501936,43.37126587],"properties":{"name":"Xulgado do Contencioso Administrativo Nº 2 de A Coruña","ID_UNIDAD_JUDICIAL":"1503045002","DESC_UNIDAD_JUDICIAL":"Xulgado do Contencioso Administrativo Nº 2 de A Coruña","ID_CONCELLO_SEDE":"15030","ID_PARTIDO_JUDICIAL":"1504","ID_TIPO_UNIDAD":"45","DESC_UNIDAD_JUDICIAL_ES":"Juzgado de lo Contencioso Administrativo Nº 2 de A Coruña"}},{"type":"Point","coordinates":[-8.395501936,43.37126587],"properties":{"name":"Xulgado de Vigilancia Penitenciaria Nº 1 de A Coruña","ID_UNIDAD_JUDICIAL":"1503052001","DESC_UNIDAD_JUDICIAL":"Xulgado de Vigilancia Penitenciaria Nº 1 de A Coruña","ID_CONCELLO_SEDE":"15030","ID_PARTIDO_JUDICIAL":"1504","ID_TIPO_UNIDAD":"52","DESC_UNIDAD_JUDICIAL_ES":"Juzgado de Vigilancia Penitenciaria Nº 1 de A Coruña"}},{"type":"Point","coordinates":[-8.389336728,43.28813923],"properties":{"name":"Xulgado de Paz de Culleredo","ID_UNIDAD_JUDICIAL":"1503146001","DESC_UNIDAD_JUDICIAL":"Xulgado de Paz de Culleredo","ID_CONCELLO_SEDE":"15031","ID_PARTIDO_JUDICIAL":"1504","ID_TIPO_UNIDAD":"46","DESC_UNIDAD_JUDICIAL_ES":"Juzgado de Paz de Culleredo"}},{"type":"Point","coordinates":[-8.865242708,42.78536323],"properties":{"name":"Xulgado de Paz de Lousame","ID_UNIDAD_JUDICIAL":"1504246001","DESC_UNIDAD_JUDICIAL":"Xulgado de Paz de Lousame","ID_CONCELLO_SEDE":"15042","ID_PARTIDO_JUDICIAL":"1505","ID_TIPO_UNIDAD":"46","DESC_UNIDAD_JUDICIAL_ES":"Juzgado de Paz de Lousame"}},{"type":"Point","coordinates":[-8.395501936,43.37126587],"properties":{"name":"Xulgado do Social Nº 1 de A Coruña","ID_UNIDAD_JUDICIAL":"1503044001","DESC_UNIDAD_JUDICIAL":"Xulgado do Social Nº 1 de A Coruña","ID_CONCELLO_SEDE":"15030","ID_PARTIDO_JUDICIAL":"1504","ID_TIPO_UNIDAD":"44","DESC_UNIDAD_JUDICIAL_ES":"Juzgado de lo Social Nº 1 de A Coruña"}},{"type":"Point","coordinates":[-8.395501936,43.37126587],"properties":{"name":"Xulgado do Social Nº 2 de A Coruña","ID_UNIDAD_JUDICIAL":"1503044002","DESC_UNIDAD_JUDICIAL":"Xulgado do Social Nº 2 de A Coruña","ID_CONCELLO_SEDE":"15030","ID_PARTIDO_JUDICIAL":"1504","ID_TIPO_UNIDAD":"44","DESC_UNIDAD_JUDICIAL_ES":"Juzgado de lo Social Nº 2 de A Coruña"}},{"type":"Point","coordinates":[-8.395501936,43.37126587],"properties":{"name":"Xulgado do Social Nº 4 de A Coruña","ID_UNIDAD_JUDICIAL":"1503044004","DESC_UNIDAD_JUDICIAL":"Xulgado do Social Nº 4 de A Coruña","ID_CONCELLO_SEDE":"15030","ID_PARTIDO_JUDICIAL":"1504","ID_TIPO_UNIDAD":"44","DESC_UNIDAD_JUDICIAL_ES":"Juzgado de lo Social Nº 4 de A Coruña"}},{"type":"Point","coordinates":[-8.395501936,43.37126587],"properties":{"name":"Xulgado do Social Nº 5 de A Coruña","ID_UNIDAD_JUDICIAL":"1503044005","DESC_UNIDAD_JUDICIAL":"Xulgado do Social Nº 5 de A Coruña","ID_CONCELLO_SEDE":"15030","ID_PARTIDO_JUDICIAL":"1504","ID_TIPO_UNIDAD":"44","DESC_UNIDAD_JUDICIAL_ES":"Juzgado de lo Social Nº 5 de A Coruña"}},{"type":"Point","coordinates":[-8.395501936,43.37126587],"properties":{"name":"Xulgado do Contencioso Administrativo Nº 1 de A Coruña","ID_UNIDAD_JUDICIAL":"1503045001","DESC_UNIDAD_JUDICIAL":"Xulgado do Contencioso Administrativo Nº 1 de A Coruña","ID_CONCELLO_SEDE":"15030","ID_PARTIDO_JUDICIAL":"1504","ID_TIPO_UNIDAD":"45","DESC_UNIDAD_JUDICIAL_ES":"Juzgado de lo Contencioso Administrativo Nº 1 de A Coruña"}},{"type":"Point","coordinates":[-8.395501936,43.37126587],"properties":{"name":"Xulgado do Contencioso Administrativo Nº 3 de A Coruña","ID_UNIDAD_JUDICIAL":"1503045003","DESC_UNIDAD_JUDICIAL":"Xulgado do Contencioso Administrativo Nº 3 de A Coruña","ID_CONCELLO_SEDE":"15030","ID_PARTIDO_JUDICIAL":"1504","ID_TIPO_UNIDAD":"45","DESC_UNIDAD_JUDICIAL_ES":"Juzgado de lo Contencioso Administrativo Nº 3 de A Coruña"}},{"type":"Point","coordinates":[-8.395501936,43.37126587],"properties":{"name":"Xulgado do Contencioso Administrativo Nº 4 de A Coruña","ID_UNIDAD_JUDICIAL":"1503045004","DESC_UNIDAD_JUDICIAL":"Xulgado do Contencioso Administrativo Nº 4 de A Coruña","ID_CONCELLO_SEDE":"15030","ID_PARTIDO_JUDICIAL":"1504","ID_TIPO_UNIDAD":"45","DESC_UNIDAD_JUDICIAL_ES":"Juzgado de lo Contencioso Administrativo Nº 4 de A Coruña"}},{"type":"Point","coordinates":[-8.395501936,43.37126587],"properties":{"name":"Servizo común de rexistro e reparto (Penal) de A Coruña","ID_UNIDAD_JUDICIAL":"1503051000","DESC_UNIDAD_JUDICIAL":"Servizo común de rexistro e reparto (Penal) de A Coruña","ID_CONCELLO_SEDE":"15030","ID_PARTIDO_JUDICIAL":"1504","ID_TIPO_UNIDAD":"51","DESC_UNIDAD_JUDICIAL_ES":"Servicio común de registro y reparto (Penal) de A Coruña"}},{"type":"Point","coordinates":[-8.395501936,43.37126587],"properties":{"name":"Xulgado do Penal Nº 1 de A Coruña","ID_UNIDAD_JUDICIAL":"1503051001","DESC_UNIDAD_JUDICIAL":"Xulgado do Penal Nº 1 de A Coruña","ID_CONCELLO_SEDE":"15030","ID_PARTIDO_JUDICIAL":"1504","ID_TIPO_UNIDAD":"51","DESC_UNIDAD_JUDICIAL_ES":"Juzgado de lo Penal Nº 1 de A Coruña"}},{"type":"Point","coordinates":[-8.395501936,43.37126587],"properties":{"name":"Xulgado do Penal Nº 2 de A Coruña","ID_UNIDAD_JUDICIAL":"1503051002","DESC_UNIDAD_JUDICIAL":"Xulgado do Penal Nº 2 de A Coruña","ID_CONCELLO_SEDE":"15030","ID_PARTIDO_JUDICIAL":"1504","ID_TIPO_UNIDAD":"51","DESC_UNIDAD_JUDICIAL_ES":"Juzgado de lo Penal Nº 2 de A Coruña"}},{"type":"Point","coordinates":[-8.395501936,43.37126587],"properties":{"name":"Xulgado do Penal Nº 3 de A Coruña","ID_UNIDAD_JUDICIAL":"1503051003","DESC_UNIDAD_JUDICIAL":"Xulgado do Penal Nº 3 de A Coruña","ID_CONCELLO_SEDE":"15030","ID_PARTIDO_JUDICIAL":"1504","ID_TIPO_UNIDAD":"51","DESC_UNIDAD_JUDICIAL_ES":"Juzgado de lo Penal Nº 3 de A Coruña"}},{"type":"Point","coordinates":[-8.395501936,43.37126587],"properties":{"name":"Xulgado do Penal Nº 4 de A Coruña","ID_UNIDAD_JUDICIAL":"1503051004","DESC_UNIDAD_JUDICIAL":"Xulgado do Penal Nº 4 de A Coruña","ID_CONCELLO_SEDE":"15030","ID_PARTIDO_JUDICIAL":"1504","ID_TIPO_UNIDAD":"51","DESC_UNIDAD_JUDICIAL_ES":"Juzgado de lo Penal Nº 4 de A Coruña"}},{"type":"Point","coordinates":[-8.395501936,43.37126587],"properties":{"name":"Xulgado do Penal Nº 5 de A Coruña","ID_UNIDAD_JUDICIAL":"1503051005","DESC_UNIDAD_JUDICIAL":"Xulgado do Penal Nº 5 de A Coruña","ID_CONCELLO_SEDE":"15030","ID_PARTIDO_JUDICIAL":"1504","ID_TIPO_UNIDAD":"51","DESC_UNIDAD_JUDICIAL_ES":"Juzgado de lo Penal Nº 5 de A Coruña"}},{"type":"Point","coordinates":[-8.395501936,43.37126587],"properties":{"name":"Xulgado de Menores Nº 1 de A Coruña","ID_UNIDAD_JUDICIAL":"1503053001","DESC_UNIDAD_JUDICIAL":"Xulgado de Menores Nº 1 de A Coruña","ID_CONCELLO_SEDE":"15030","ID_PARTIDO_JUDICIAL":"1504","ID_TIPO_UNIDAD":"53","DESC_UNIDAD_JUDICIAL_ES":"Juzgado de Menores Nº 1 de A Coruña"}},{"type":"Point","coordinates":[-8.035271789,43.13913185],"properties":{"name":"Xulgado de Paz de Curtis","ID_UNIDAD_JUDICIAL":"1503246001","DESC_UNIDAD_JUDICIAL":"Xulgado de Paz de Curtis","ID_CONCELLO_SEDE":"15032","ID_PARTIDO_JUDICIAL":"1501","ID_TIPO_UNIDAD":"46","DESC_UNIDAD_JUDICIAL_ES":"Juzgado de Paz de Curtis"}},{"type":"Point","coordinates":[-8.704139339,42.71571817],"properties":{"name":"Xulgado de Paz de Dodro","ID_UNIDAD_JUDICIAL":"1503346001","DESC_UNIDAD_JUDICIAL":"Xulgado de Paz de Dodro","ID_CONCELLO_SEDE":"15033","ID_PARTIDO_JUDICIAL":"1513","ID_TIPO_UNIDAD":"46","DESC_UNIDAD_JUDICIAL_ES":"Juzgado de Paz de Dodro"}},{"type":"Point","coordinates":[-9.115220511,43.00941719],"properties":{"name":"Xulgado de Paz de Dumbría","ID_UNIDAD_JUDICIAL":"1503446001","DESC_UNIDAD_JUDICIAL":"Xulgado de Paz de Dumbría","ID_CONCELLO_SEDE":"15034","ID_PARTIDO_JUDICIAL":"1507","ID_TIPO_UNIDAD":"46","DESC_UNIDAD_JUDICIAL_ES":"Juzgado de Paz de Dumbría"}},{"type":"Point","coordinates":[-8.233353008,43.48451427],"properties":{"name":"Oficina Rexistro e Reparto de Ferrol","ID_UNIDAD_JUDICIAL":"1503641000","DESC_UNIDAD_JUDICIAL":"Oficina Rexistro e Reparto de Ferrol","ID_CONCELLO_SEDE":"15036","ID_PARTIDO_JUDICIAL":"1503","ID_TIPO_UNIDAD":"41","DESC_UNIDAD_JUDICIAL_ES":"Oficina de Registro y Reparto de Ferrol"}},{"type":"Point","coordinates":[-8.233353008,43.48451427],"properties":{"name":"Xulgado de Primeira Instancia e Instrucción  Nº 1 de Ferrol","ID_UNIDAD_JUDICIAL":"1503641001","DESC_UNIDAD_JUDICIAL":"Xulgado de Primeira Instancia e Instrucción  Nº 1 de Ferrol","ID_CONCELLO_SEDE":"15036","ID_PARTIDO_JUDICIAL":"1503","ID_TIPO_UNIDAD":"41","DESC_UNIDAD_JUDICIAL_ES":"Juzgado de Primera Instancia e Instruccion Nº 1 de Ferrol"}},{"type":"Point","coordinates":[-8.233353008,43.48451427],"properties":{"name":"Xulgado de Primeira Instancia e Instrucción  Nº 2 de Ferrol","ID_UNIDAD_JUDICIAL":"1503641002","DESC_UNIDAD_JUDICIAL":"Xulgado de Primeira Instancia e Instrucción  Nº 2 de Ferrol","ID_CONCELLO_SEDE":"15036","ID_PARTIDO_JUDICIAL":"1503","ID_TIPO_UNIDAD":"41","DESC_UNIDAD_JUDICIAL_ES":"Juzgado de Primera Instancia e Instruccion Nº 2 de Ferrol"}},{"type":"Point","coordinates":[-8.233353008,43.48451427],"properties":{"name":"Xulgado de Primeira Instancia e Instrucción  Nº 3 de Ferrol","ID_UNIDAD_JUDICIAL":"1503641003","DESC_UNIDAD_JUDICIAL":"Xulgado de Primeira Instancia e Instrucción  Nº 3 de Ferrol","ID_CONCELLO_SEDE":"15036","ID_PARTIDO_JUDICIAL":"1503","ID_TIPO_UNIDAD":"41","DESC_UNIDAD_JUDICIAL_ES":"Juzgado de Primera Instancia e Instruccion Nº 3 de Ferrol"}},{"type":"Point","coordinates":[-8.233353008,43.48451427],"properties":{"name":"Xulgado de Primeira Instancia e Instrucción  Nº 4 de Ferrol","ID_UNIDAD_JUDICIAL":"1503641004","DESC_UNIDAD_JUDICIAL":"Xulgado de Primeira Instancia e Instrucción  Nº 4 de Ferrol","ID_CONCELLO_SEDE":"15036","ID_PARTIDO_JUDICIAL":"1503","ID_TIPO_UNIDAD":"41","DESC_UNIDAD_JUDICIAL_ES":"Juzgado de Primera Instancia e Instruccion Nº 4 de Ferrol"}},{"type":"Point","coordinates":[-8.233353008,43.48451427],"properties":{"name":"Xulgado de Primeira Instancia e Instrucción  Nº 5 de Ferrol","ID_UNIDAD_JUDICIAL":"1503641005","DESC_UNIDAD_JUDICIAL":"Xulgado de Primeira Instancia e Instrucción  Nº 5 de Ferrol","ID_CONCELLO_SEDE":"15036","ID_PARTIDO_JUDICIAL":"1503","ID_TIPO_UNIDAD":"41","DESC_UNIDAD_JUDICIAL_ES":"Juzgado de Primera Instancia e Instruccion Nº 5 de Ferrol"}},{"type":"Point","coordinates":[-8.233353008,43.48451427],"properties":{"name":"Xulgado de Primeira Instancia e Instrucción  Nº 6 de Ferrol","ID_UNIDAD_JUDICIAL":"1503641006","DESC_UNIDAD_JUDICIAL":"Xulgado de Primeira Instancia e Instrucción  Nº 6 de Ferrol","ID_CONCELLO_SEDE":"15036","ID_PARTIDO_JUDICIAL":"1503","ID_TIPO_UNIDAD":"41","DESC_UNIDAD_JUDICIAL_ES":"Juzgado de Primera Instancia e Instruccion Nº 6 de Ferrol"}},{"type":"Point","coordinates":[-8.233353008,43.48451427],"properties":{"name":"Servizo común de rexistro e reparto (Social) de Ferrol","ID_UNIDAD_JUDICIAL":"1503644000","DESC_UNIDAD_JUDICIAL":"Servizo común de rexistro e reparto (Social) de Ferrol","ID_CONCELLO_SEDE":"15036","ID_PARTIDO_JUDICIAL":"1503","ID_TIPO_UNIDAD":"44","DESC_UNIDAD_JUDICIAL_ES":"Servicio común de registro y reparto (Social) de Ferrol"}},{"type":"Point","coordinates":[-8.233353008,43.48451427],"properties":{"name":"Xulgado do Social Nº 2 de Ferrol","ID_UNIDAD_JUDICIAL":"1503644002","DESC_UNIDAD_JUDICIAL":"Xulgado do Social Nº 2 de Ferrol","ID_CONCELLO_SEDE":"15036","ID_PARTIDO_JUDICIAL":"1503","ID_TIPO_UNIDAD":"44","DESC_UNIDAD_JUDICIAL_ES":"Juzgado de lo Social Nº 2 de Ferrol"}},{"type":"Point","coordinates":[-8.233353008,43.48451427],"properties":{"name":"Xulgado do Contencioso Administrativo Nº 1 de Ferrol","ID_UNIDAD_JUDICIAL":"1503645001","DESC_UNIDAD_JUDICIAL":"Xulgado do Contencioso Administrativo Nº 1 de Ferrol","ID_CONCELLO_SEDE":"15036","ID_PARTIDO_JUDICIAL":"1503","ID_TIPO_UNIDAD":"45","DESC_UNIDAD_JUDICIAL_ES":"Juzgado de lo Contencioso Administrativo Nº 1 de Ferrol"}},{"type":"Point","coordinates":[-8.233353008,43.48451427],"properties":{"name":"Servizo común de rexistro e reparto (Penal) de Ferrol","ID_UNIDAD_JUDICIAL":"1503651000","DESC_UNIDAD_JUDICIAL":"Servizo común de rexistro e reparto (Penal) de Ferrol","ID_CONCELLO_SEDE":"15036","ID_PARTIDO_JUDICIAL":"1503","ID_TIPO_UNIDAD":"51","DESC_UNIDAD_JUDICIAL_ES":"Servicio común de registro y reparto (Penal) de Ferrol"}},{"type":"Point","coordinates":[-8.233353008,43.48451427],"properties":{"name":"Xulgado do Penal Nº 1 de Ferrol","ID_UNIDAD_JUDICIAL":"1503651001","DESC_UNIDAD_JUDICIAL":"Xulgado do Penal Nº 1 de Ferrol","ID_CONCELLO_SEDE":"15036","ID_PARTIDO_JUDICIAL":"1503","ID_TIPO_UNIDAD":"51","DESC_UNIDAD_JUDICIAL_ES":"Juzgado de lo Penal Nº 1 de Ferrol"}},{"type":"Point","coordinates":[-8.292920031,43.03532365],"properties":{"name":"Xulgado de Paz de Frades","ID_UNIDAD_JUDICIAL":"1503846001","DESC_UNIDAD_JUDICIAL":"Xulgado de Paz de Frades","ID_CONCELLO_SEDE":"15038","ID_PARTIDO_JUDICIAL":"1514","ID_TIPO_UNIDAD":"46","DESC_UNIDAD_JUDICIAL_ES":"Juzgado de Paz de Frades"}},{"type":"Point","coordinates":[-8.064807436,43.28416332],"properties":{"name":"Xulgado de Paz de Irixoa","ID_UNIDAD_JUDICIAL":"1503946001","DESC_UNIDAD_JUDICIAL":"Xulgado de Paz de Irixoa","ID_CONCELLO_SEDE":"15039","ID_PARTIDO_JUDICIAL":"1501","ID_TIPO_UNIDAD":"46","DESC_UNIDAD_JUDICIAL_ES":"Juzgado de Paz de Irixoa"}},{"type":"Point","coordinates":[-9.004161508,43.21729946],"properties":{"name":"Xulgado de Paz de Laxe","ID_UNIDAD_JUDICIAL":"1504046001","DESC_UNIDAD_JUDICIAL":"Xulgado de Paz de Laxe","ID_CONCELLO_SEDE":"15040","ID_PARTIDO_JUDICIAL":"1506","ID_TIPO_UNIDAD":"46","DESC_UNIDAD_JUDICIAL_ES":"Juzgado de Paz de Laxe"}},{"type":"Point","coordinates":[-8.811051458,43.32287624],"properties":{"name":"Xulgado de Paz de Malpica De Bergantiños","ID_UNIDAD_JUDICIAL":"1504346001","DESC_UNIDAD_JUDICIAL":"Xulgado de Paz de Malpica De Bergantiños","ID_CONCELLO_SEDE":"15043","ID_PARTIDO_JUDICIAL":"1506","ID_TIPO_UNIDAD":"46","DESC_UNIDAD_JUDICIAL_ES":"Juzgado de Paz de Malpica De Bergantiños"}},{"type":"Point","coordinates":[-7.705643172,43.7362013],"properties":{"name":"Xulgado de Paz de Mañón","ID_UNIDAD_JUDICIAL":"1504446001","DESC_UNIDAD_JUDICIAL":"Xulgado de Paz de Mañón","ID_CONCELLO_SEDE":"15044","ID_PARTIDO_JUDICIAL":"1509","ID_TIPO_UNIDAD":"46","DESC_UNIDAD_JUDICIAL_ES":"Juzgado de Paz de Mañón"}},{"type":"Point","coordinates":[-8.990611861,42.93644317],"properties":{"name":"Xulgado de Paz de Mazaricos","ID_UNIDAD_JUDICIAL":"1504546001","DESC_UNIDAD_JUDICIAL":"Xulgado de Paz de Mazaricos","ID_CONCELLO_SEDE":"15045","ID_PARTIDO_JUDICIAL":"1512","ID_TIPO_UNIDAD":"46","DESC_UNIDAD_JUDICIAL_ES":"Juzgado de Paz de Mazaricos"}},{"type":"Point","coordinates":[-8.016573278,42.91514552],"properties":{"name":"Xulgado de Paz de Melide","ID_UNIDAD_JUDICIAL":"1504646001","DESC_UNIDAD_JUDICIAL":"Xulgado de Paz de Melide","ID_CONCELLO_SEDE":"15046","ID_PARTIDO_JUDICIAL":"1508","ID_TIPO_UNIDAD":"46","DESC_UNIDAD_JUDICIAL_ES":"Juzgado de Paz de Melide"}},{"type":"Point","coordinates":[-8.238019769,43.08023914],"properties":{"name":"Xulgado de Paz de Mesía","ID_UNIDAD_JUDICIAL":"1504746001","DESC_UNIDAD_JUDICIAL":"Xulgado de Paz de Mesía","ID_CONCELLO_SEDE":"15047","ID_PARTIDO_JUDICIAL":"1514","ID_TIPO_UNIDAD":"46","DESC_UNIDAD_JUDICIAL_ES":"Juzgado de Paz de Mesía"}},{"type":"Point","coordinates":[-8.204914958,43.34730034],"properties":{"name":"Xulgado de Paz de Miño","ID_UNIDAD_JUDICIAL":"1504846001","DESC_UNIDAD_JUDICIAL":"Xulgado de Paz de Miño","ID_CONCELLO_SEDE":"15048","ID_PARTIDO_JUDICIAL":"1501","ID_TIPO_UNIDAD":"46","DESC_UNIDAD_JUDICIAL_ES":"Juzgado de Paz de Miño"}},{"type":"Point","coordinates":[-8.015440303,43.56183028],"properties":{"name":"Xulgado de Paz de Moeche","ID_UNIDAD_JUDICIAL":"1504946001","DESC_UNIDAD_JUDICIAL":"Xulgado de Paz de Moeche","ID_CONCELLO_SEDE":"15049","ID_PARTIDO_JUDICIAL":"1509","ID_TIPO_UNIDAD":"46","DESC_UNIDAD_JUDICIAL_ES":"Juzgado de Paz de Moeche"}},{"type":"Point","coordinates":[-8.254980506,43.46044467],"properties":{"name":"Xulgado de Paz de Mugardos","ID_UNIDAD_JUDICIAL":"1505146001","DESC_UNIDAD_JUDICIAL":"Xulgado de Paz de Mugardos","ID_CONCELLO_SEDE":"15051","ID_PARTIDO_JUDICIAL":"1503","ID_TIPO_UNIDAD":"46","DESC_UNIDAD_JUDICIAL_ES":"Juzgado de Paz de Mugardos"}},{"type":"Point","coordinates":[-9.216836117,43.10441658],"properties":{"name":"Xulgado de Paz de Muxía","ID_UNIDAD_JUDICIAL":"1505246001","DESC_UNIDAD_JUDICIAL":"Xulgado de Paz de Muxía","ID_CONCELLO_SEDE":"15052","ID_PARTIDO_JUDICIAL":"1507","ID_TIPO_UNIDAD":"46","DESC_UNIDAD_JUDICIAL_ES":"Juzgado de Paz de Muxía"}},{"type":"Point","coordinates":[-9.057648569,42.77432429],"properties":{"name":"Oficina Registro y Reparto de Muros","ID_UNIDAD_JUDICIAL":"1505341000","DESC_UNIDAD_JUDICIAL":"Oficina Registro y Reparto de Muros","ID_CONCELLO_SEDE":"15053","ID_PARTIDO_JUDICIAL":"1512","ID_TIPO_UNIDAD":"41","DESC_UNIDAD_JUDICIAL_ES":"Oficina Registro y Reparto de Muros"}},{"type":"Point","coordinates":[-7.714343956,41.95375505],"properties":{"name":"Xulgado de Paz de Baltar","ID_UNIDAD_JUDICIAL":"3200546001","DESC_UNIDAD_JUDICIAL":"Xulgado de Paz de Baltar","ID_CONCELLO_SEDE":"32005","ID_PARTIDO_JUDICIAL":"3203","ID_TIPO_UNIDAD":"46","DESC_UNIDAD_JUDICIAL_ES":"Juzgado de Paz de Baltar"}},{"type":"Point","coordinates":[-7.9752718,42.03162122],"properties":{"name":"Oficina Registro y Reparto de Bande","ID_UNIDAD_JUDICIAL":"3200641000","DESC_UNIDAD_JUDICIAL":"Oficina Registro y Reparto de Bande","ID_CONCELLO_SEDE":"32006","ID_PARTIDO_JUDICIAL":"3208","ID_TIPO_UNIDAD":"41","DESC_UNIDAD_JUDICIAL_ES":"Oficina Registro y Reparto de Bande"}},{"type":"Point","coordinates":[-7.9752718,42.03162122],"properties":{"name":"Xulgado de Primeira Instancia e Instrucción Nº1 de Bande","ID_UNIDAD_JUDICIAL":"3200641001","DESC_UNIDAD_JUDICIAL":"Xulgado de Primeira Instancia e Instrucción Nº1 de Bande","ID_CONCELLO_SEDE":"32006","ID_PARTIDO_JUDICIAL":"3208","ID_TIPO_UNIDAD":"41","DESC_UNIDAD_JUDICIAL_ES":"Juzgado de Primera Instancia e Instrucción Nº1 de Bande"}},{"type":"Point","coordinates":[-8.726788225,42.23588559],"properties":{"name":"Xulgado do Penal Nº 2 de Vigo","ID_UNIDAD_JUDICIAL":"3605751002","DESC_UNIDAD_JUDICIAL":"Xulgado do Penal Nº 2 de Vigo","ID_CONCELLO_SEDE":"36057","ID_PARTIDO_JUDICIAL":"3603","ID_TIPO_UNIDAD":"51","DESC_UNIDAD_JUDICIAL_ES":"Juzgado de lo Penal Nº 2 de Vigo"}},{"type":"Point","coordinates":[-8.657119289,42.58056561],"properties":{"name":"Xulgado de Paz de Portas","ID_UNIDAD_JUDICIAL":"3604046001","DESC_UNIDAD_JUDICIAL":"Xulgado de Paz de Portas","ID_CONCELLO_SEDE":"36040","ID_PARTIDO_JUDICIAL":"3612","ID_TIPO_UNIDAD":"46","DESC_UNIDAD_JUDICIAL_ES":"Juzgado de Paz de Portas"}},{"type":"Point","coordinates":[-8.395501936,43.37126587],"properties":{"name":"Xulgado de Primeira Instancia Nº 16 de A Coruña","ID_UNIDAD_JUDICIAL":"1503042016","DESC_UNIDAD_JUDICIAL":"Xulgado de Primeira Instancia Nº 16 de A Coruña","ID_CONCELLO_SEDE":"15030","ID_PARTIDO_JUDICIAL":"1504","ID_TIPO_UNIDAD":"42","DESC_UNIDAD_JUDICIAL_ES":"Descripción No Disponible"}},{"type":"Point","coordinates":[-8.091640217,42.19279759],"properties":{"name":"Xulgado de Paz de Gomesende","ID_UNIDAD_JUDICIAL":"3203346001","DESC_UNIDAD_JUDICIAL":"Xulgado de Paz de Gomesende","ID_CONCELLO_SEDE":"32033","ID_PARTIDO_JUDICIAL":"3209","ID_TIPO_UNIDAD":"46","DESC_UNIDAD_JUDICIAL_ES":"Juzgado de Paz de Gomesende"}},{"type":"Point","coordinates":[-7.139000186,42.06063452],"properties":{"name":"Xulgado de Paz de A Gudiña","ID_UNIDAD_JUDICIAL":"3203446001","DESC_UNIDAD_JUDICIAL":"Xulgado de Paz de A Gudiña","ID_CONCELLO_SEDE":"32034","ID_PARTIDO_JUDICIAL":"3205","ID_TIPO_UNIDAD":"46","DESC_UNIDAD_JUDICIAL_ES":"Juzgado de Paz de A Gudiña"}},{"type":"Point","coordinates":[-8.119823347,42.51298288],"properties":{"name":"Xulgado de Paz de O Irixo","ID_UNIDAD_JUDICIAL":"3203546001","DESC_UNIDAD_JUDICIAL":"Xulgado de Paz de O Irixo","ID_CONCELLO_SEDE":"32035","ID_PARTIDO_JUDICIAL":"3207","ID_TIPO_UNIDAD":"46","DESC_UNIDAD_JUDICIAL_ES":"Juzgado de Paz de O Irixo"}},{"type":"Point","coordinates":[-7.735274608,42.20411096],"properties":{"name":"Xulgado de Paz de Xunqueira De Ambía","ID_UNIDAD_JUDICIAL":"3203646001","DESC_UNIDAD_JUDICIAL":"Xulgado de Paz de Xunqueira De Ambía","ID_CONCELLO_SEDE":"32036","ID_PARTIDO_JUDICIAL":"3201","ID_TIPO_UNIDAD":"46","DESC_UNIDAD_JUDICIAL_ES":"Juzgado de Paz de Xunqueira De Ambía"}},{"type":"Point","coordinates":[-7.629208294,42.31786302],"properties":{"name":"Xulgado de Paz de Xunqueira De Espadanedo","ID_UNIDAD_JUDICIAL":"3203746001","DESC_UNIDAD_JUDICIAL":"Xulgado de Paz de Xunqueira De Espadanedo","ID_CONCELLO_SEDE":"32037","ID_PARTIDO_JUDICIAL":"3201","ID_TIPO_UNIDAD":"46","DESC_UNIDAD_JUDICIAL_ES":"Juzgado de Paz de Xunqueira De Espadanedo"}},{"type":"Point","coordinates":[-7.163275681,42.34673749],"properties":{"name":"Xulgado de Paz de Larouco","ID_UNIDAD_JUDICIAL":"3203846001","DESC_UNIDAD_JUDICIAL":"Xulgado de Paz de Larouco","ID_CONCELLO_SEDE":"32038","ID_PARTIDO_JUDICIAL":"3204","ID_TIPO_UNIDAD":"46","DESC_UNIDAD_JUDICIAL_ES":"Juzgado de Paz de Larouco"}},{"type":"Point","coordinates":[-7.460450936,42.06127325],"properties":{"name":"Xulgado de Paz de Laza","ID_UNIDAD_JUDICIAL":"3203946001","DESC_UNIDAD_JUDICIAL":"Xulgado de Paz de Laza","ID_CONCELLO_SEDE":"32039","ID_PARTIDO_JUDICIAL":"3205","ID_TIPO_UNIDAD":"46","DESC_UNIDAD_JUDICIAL_ES":"Juzgado de Paz de Laza"}},{"type":"Point","coordinates":[-8.039507767,41.98721623],"properties":{"name":"Xulgado de Paz de Lobeira","ID_UNIDAD_JUDICIAL":"3204146001","DESC_UNIDAD_JUDICIAL":"Xulgado de Paz de Lobeira","ID_CONCELLO_SEDE":"32041","ID_PARTIDO_JUDICIAL":"3208","ID_TIPO_UNIDAD":"46","DESC_UNIDAD_JUDICIAL_ES":"Juzgado de Paz de Lobeira"}},{"type":"Point","coordinates":[-8.083224156,41.90363192],"properties":{"name":"Xulgado de Paz de Lobios","ID_UNIDAD_JUDICIAL":"3204246001","DESC_UNIDAD_JUDICIAL":"Xulgado de Paz de Lobios","ID_CONCELLO_SEDE":"32042","ID_PARTIDO_JUDICIAL":"3208","ID_TIPO_UNIDAD":"46","DESC_UNIDAD_JUDICIAL_ES":"Juzgado de Paz de Lobios"}},{"type":"Point","coordinates":[-7.650775756,42.26996396],"properties":{"name":"Xulgado de Paz de Maceda","ID_UNIDAD_JUDICIAL":"3204346001","DESC_UNIDAD_JUDICIAL":"Xulgado de Paz de Maceda","ID_CONCELLO_SEDE":"32043","ID_PARTIDO_JUDICIAL":"3201","ID_TIPO_UNIDAD":"46","DESC_UNIDAD_JUDICIAL_ES":"Juzgado de Paz de Maceda"}},{"type":"Point","coordinates":[-7.234143092,42.30970282],"properties":{"name":"Xulgado de Paz de Manzaneda","ID_UNIDAD_JUDICIAL":"3204446001","DESC_UNIDAD_JUDICIAL":"Xulgado de Paz de Manzaneda","ID_CONCELLO_SEDE":"32044","ID_PARTIDO_JUDICIAL":"3204","ID_TIPO_UNIDAD":"46","DESC_UNIDAD_JUDICIAL_ES":"Juzgado de Paz de Manzaneda"}},{"type":"Point","coordinates":[-8.216316075,42.25722003],"properties":{"name":"Xulgado de Paz de Melón","ID_UNIDAD_JUDICIAL":"3204646001","DESC_UNIDAD_JUDICIAL":"Xulgado de Paz de Melón","ID_CONCELLO_SEDE":"32046","ID_PARTIDO_JUDICIAL":"3202","ID_TIPO_UNIDAD":"46","DESC_UNIDAD_JUDICIAL_ES":"Juzgado de Paz de Melón"}},{"type":"Point","coordinates":[-7.908477431,42.2191561],"properties":{"name":"Xulgado de Paz de A Merca","ID_UNIDAD_JUDICIAL":"3204746001","DESC_UNIDAD_JUDICIAL":"Xulgado de Paz de A Merca","ID_CONCELLO_SEDE":"32047","ID_PARTIDO_JUDICIAL":"3209","ID_TIPO_UNIDAD":"46","DESC_UNIDAD_JUDICIAL_ES":"Juzgado de Paz de A Merca"}},{"type":"Point","coordinates":[-7.045362953,42.01369589],"properties":{"name":"Xulgado de Paz de A Mezquita","ID_UNIDAD_JUDICIAL":"3204846001","DESC_UNIDAD_JUDICIAL":"Xulgado de Paz de A Mezquita","ID_CONCELLO_SEDE":"32048","ID_PARTIDO_JUDICIAL":"3205","ID_TIPO_UNIDAD":"46","DESC_UNIDAD_JUDICIAL_ES":"Juzgado de Paz de A Mezquita"}},{"type":"Point","coordinates":[-7.496611783,41.9515423],"properties":{"name":"Xulgado de Paz de Monterrei","ID_UNIDAD_JUDICIAL":"3205046001","DESC_UNIDAD_JUDICIAL":"Xulgado de Paz de Monterrei","ID_CONCELLO_SEDE":"32050","ID_PARTIDO_JUDICIAL":"3205","ID_TIPO_UNIDAD":"46","DESC_UNIDAD_JUDICIAL_ES":"Juzgado de Paz de Monterrei"}},{"type":"Point","coordinates":[-7.971773014,41.95783553],"properties":{"name":"Xulgado de Paz de Muíños","ID_UNIDAD_JUDICIAL":"3205146001","DESC_UNIDAD_JUDICIAL":"Xulgado de Paz de Muíños","ID_CONCELLO_SEDE":"32051","ID_PARTIDO_JUDICIAL":"3208","ID_TIPO_UNIDAD":"46","DESC_UNIDAD_JUDICIAL_ES":"Juzgado de Paz de Muíños"}},{"type":"Point","coordinates":[-7.727476442,42.41177442],"properties":{"name":"Xulgado de Paz de Nogueira De Ramuín","ID_UNIDAD_JUDICIAL":"3205246001","DESC_UNIDAD_JUDICIAL":"Xulgado de Paz de Nogueira De Ramuín","ID_CONCELLO_SEDE":"32052","ID_PARTIDO_JUDICIAL":"3201","ID_TIPO_UNIDAD":"46","DESC_UNIDAD_JUDICIAL_ES":"Juzgado de Paz de Nogueira De Ramuín"}},{"type":"Point","coordinates":[-7.476576175,41.88494565],"properties":{"name":"Xulgado de Paz de Oímbra","ID_UNIDAD_JUDICIAL":"3205346001","DESC_UNIDAD_JUDICIAL":"Xulgado de Paz de Oímbra","ID_CONCELLO_SEDE":"32053","ID_PARTIDO_JUDICIAL":"3205","ID_TIPO_UNIDAD":"46","DESC_UNIDAD_JUDICIAL_ES":"Juzgado de Paz de Oímbra"}},{"type":"Point","coordinates":[-7.863836656,42.33553117],"properties":{"name":"Sección nº 1 da audiencia provincial de Ourense","ID_UNIDAD_JUDICIAL":"3205437001","DESC_UNIDAD_JUDICIAL":"Sección nº 1 da audiencia provincial de Ourense","ID_CONCELLO_SEDE":"32054","ID_PARTIDO_JUDICIAL":"3201","ID_TIPO_UNIDAD":"37","DESC_UNIDAD_JUDICIAL_ES":"Sección nº 1 de la audiencia provincial de Ourense"}},{"type":"Point","coordinates":[-7.863836656,42.33553117],"properties":{"name":"Sección nº 2 da audiencia provincial de Ourense","ID_UNIDAD_JUDICIAL":"3205437002","DESC_UNIDAD_JUDICIAL":"Sección nº 2 da audiencia provincial de Ourense","ID_CONCELLO_SEDE":"32054","ID_PARTIDO_JUDICIAL":"3201","ID_TIPO_UNIDAD":"37","DESC_UNIDAD_JUDICIAL_ES":"Sección nº 2 de la audiencia provincial de Ourense"}},{"type":"Point","coordinates":[-7.863836656,42.33553117],"properties":{"name":"Xulgado de Primeira Instancia e Instrucción  Nº 1 de Ourense","ID_UNIDAD_JUDICIAL":"3205441001","DESC_UNIDAD_JUDICIAL":"Xulgado de Primeira Instancia e Instrucción  Nº 1 de Ourense","ID_CONCELLO_SEDE":"32054","ID_PARTIDO_JUDICIAL":"3201","ID_TIPO_UNIDAD":"41","DESC_UNIDAD_JUDICIAL_ES":"Juzgado de Primera Instancia e Instruccion Nº 1 de Ourense"}},{"type":"Point","coordinates":[-7.863836656,42.33553117],"properties":{"name":"Xulgado de Primeira Instancia e Instrucción  Nº 2 de Ourense","ID_UNIDAD_JUDICIAL":"3205441002","DESC_UNIDAD_JUDICIAL":"Xulgado de Primeira Instancia e Instrucción  Nº 2 de Ourense","ID_CONCELLO_SEDE":"32054","ID_PARTIDO_JUDICIAL":"3201","ID_TIPO_UNIDAD":"41","DESC_UNIDAD_JUDICIAL_ES":"Juzgado de Primera Instancia e Instruccion Nº 2 de Ourense"}},{"type":"Point","coordinates":[-7.863836656,42.33553117],"properties":{"name":"Xulgado de Primeira Instancia e Instrucción  Nº 3 de Ourense","ID_UNIDAD_JUDICIAL":"3205441003","DESC_UNIDAD_JUDICIAL":"Xulgado de Primeira Instancia e Instrucción  Nº 3 de Ourense","ID_CONCELLO_SEDE":"32054","ID_PARTIDO_JUDICIAL":"3201","ID_TIPO_UNIDAD":"41","DESC_UNIDAD_JUDICIAL_ES":"Juzgado de Primera Instancia e Instruccion Nº 3 de Ourense"}},{"type":"Point","coordinates":[-7.863836656,42.33553117],"properties":{"name":"Xulgado de Primeira Instancia e Instrucción  Nº 4 de Ourense","ID_UNIDAD_JUDICIAL":"3205441004","DESC_UNIDAD_JUDICIAL":"Xulgado de Primeira Instancia e Instrucción  Nº 4 de Ourense","ID_CONCELLO_SEDE":"32054","ID_PARTIDO_JUDICIAL":"3201","ID_TIPO_UNIDAD":"41","DESC_UNIDAD_JUDICIAL_ES":"Juzgado de Primera Instancia e Instruccion Nº 4 de Ourense"}},{"type":"Point","coordinates":[-7.863836656,42.33553117],"properties":{"name":"Xulgado de Primeira Instancia e Instrucción  Nº 6 de Ourense","ID_UNIDAD_JUDICIAL":"3205441006","DESC_UNIDAD_JUDICIAL":"Xulgado de Primeira Instancia e Instrucción  Nº 6 de Ourense","ID_CONCELLO_SEDE":"32054","ID_PARTIDO_JUDICIAL":"3201","ID_TIPO_UNIDAD":"41","DESC_UNIDAD_JUDICIAL_ES":"Juzgado de Primera Instancia e Instruccion Nº 6 de Ourense"}},{"type":"Point","coordinates":[-7.863836656,42.33553117],"properties":{"name":"Xulgado de Primeira Instancia e Instrucción  Nº 7 de Ourense","ID_UNIDAD_JUDICIAL":"3205441007","DESC_UNIDAD_JUDICIAL":"Xulgado de Primeira Instancia e Instrucción  Nº 7 de Ourense","ID_CONCELLO_SEDE":"32054","ID_PARTIDO_JUDICIAL":"3201","ID_TIPO_UNIDAD":"41","DESC_UNIDAD_JUDICIAL_ES":"Juzgado de Primera Instancia e Instruccion Nº 7 de Ourense"}},{"type":"Point","coordinates":[-7.863836656,42.33553117],"properties":{"name":"Servizo común de rexistro e reparto (Social) de Ourense","ID_UNIDAD_JUDICIAL":"3205444000","DESC_UNIDAD_JUDICIAL":"Servizo común de rexistro e reparto (Social) de Ourense","ID_CONCELLO_SEDE":"32054","ID_PARTIDO_JUDICIAL":"3201","ID_TIPO_UNIDAD":"44","DESC_UNIDAD_JUDICIAL_ES":"Servicio común de registro y reparto (Social) de Ourense"}},{"type":"Point","coordinates":[-7.863836656,42.33553117],"properties":{"name":"Xulgado do Social Nº 2 de Ourense","ID_UNIDAD_JUDICIAL":"3205444002","DESC_UNIDAD_JUDICIAL":"Xulgado do Social Nº 2 de Ourense","ID_CONCELLO_SEDE":"32054","ID_PARTIDO_JUDICIAL":"3201","ID_TIPO_UNIDAD":"44","DESC_UNIDAD_JUDICIAL_ES":"Juzgado de lo Social Nº 2 de Ourense"}},{"type":"Point","coordinates":[-7.863836656,42.33553117],"properties":{"name":"Xulgado do Social Nº 3 de Ourense","ID_UNIDAD_JUDICIAL":"3205444003","DESC_UNIDAD_JUDICIAL":"Xulgado do Social Nº 3 de Ourense","ID_CONCELLO_SEDE":"32054","ID_PARTIDO_JUDICIAL":"3201","ID_TIPO_UNIDAD":"44","DESC_UNIDAD_JUDICIAL_ES":"Juzgado de lo Social Nº 3 de Ourense"}},{"type":"Point","coordinates":[-7.863836656,42.33553117],"properties":{"name":"Xulgado do Contencioso Administrativo Nº 1 de Ourense","ID_UNIDAD_JUDICIAL":"3205445001","DESC_UNIDAD_JUDICIAL":"Xulgado do Contencioso Administrativo Nº 1 de Ourense","ID_CONCELLO_SEDE":"32054","ID_PARTIDO_JUDICIAL":"3201","ID_TIPO_UNIDAD":"45","DESC_UNIDAD_JUDICIAL_ES":"Juzgado de lo Contencioso Administrativo Nº 1 de Ourense"}},{"type":"Point","coordinates":[-7.863836656,42.33553117],"properties":{"name":"Servizo común de rexistro e reparto (Penal) de Ourense","ID_UNIDAD_JUDICIAL":"3205451000","DESC_UNIDAD_JUDICIAL":"Servizo común de rexistro e reparto (Penal) de Ourense","ID_CONCELLO_SEDE":"32054","ID_PARTIDO_JUDICIAL":"3201","ID_TIPO_UNIDAD":"51","DESC_UNIDAD_JUDICIAL_ES":"Servicio común de registro y reparto (Penal) de Ourense"}},{"type":"Point","coordinates":[-7.863836656,42.33553117],"properties":{"name":"Xulgado do Penal Nº 1 de Ourense","ID_UNIDAD_JUDICIAL":"3205451001","DESC_UNIDAD_JUDICIAL":"Xulgado do Penal Nº 1 de Ourense","ID_CONCELLO_SEDE":"32054","ID_PARTIDO_JUDICIAL":"3201","ID_TIPO_UNIDAD":"51","DESC_UNIDAD_JUDICIAL_ES":"Juzgado de lo Penal Nº 1 de Ourense"}},{"type":"Point","coordinates":[-7.863836656,42.33553117],"properties":{"name":"Xulgado do Penal Nº 2 de Ourense","ID_UNIDAD_JUDICIAL":"3205451002","DESC_UNIDAD_JUDICIAL":"Xulgado do Penal Nº 2 de Ourense","ID_CONCELLO_SEDE":"32054","ID_PARTIDO_JUDICIAL":"3201","ID_TIPO_UNIDAD":"51","DESC_UNIDAD_JUDICIAL_ES":"Juzgado de lo Penal Nº 2 de Ourense"}},{"type":"Point","coordinates":[-8.395501936,43.37126587],"properties":{"name":"Servizo Común de rexistro e reparto da audiencia provincial de A Coruña","ID_UNIDAD_JUDICIAL":"1503037000","DESC_UNIDAD_JUDICIAL":"Servizo Común de rexistro e reparto da audiencia provincial de A Coruña","ID_CONCELLO_SEDE":"15030","ID_PARTIDO_JUDICIAL":"1504","ID_TIPO_UNIDAD":"37","DESC_UNIDAD_JUDICIAL_ES":"Servicio Común de registro y reparto de la audiencia provincial de A Coruña"}},{"type":"Point","coordinates":[-8.395501936,43.37126587],"properties":{"name":"Sección nº 1 da audiencia provincial de A Coruña","ID_UNIDAD_JUDICIAL":"1503037001","DESC_UNIDAD_JUDICIAL":"Sección nº 1 da audiencia provincial de A Coruña","ID_CONCELLO_SEDE":"15030","ID_PARTIDO_JUDICIAL":"1504","ID_TIPO_UNIDAD":"37","DESC_UNIDAD_JUDICIAL_ES":"Sección nº 1 de la audiencia provincial de A Coruña"}},{"type":"Point","coordinates":[-8.395501936,43.37126587],"properties":{"name":"Sección nº 2 da audiencia provincial de A Coruña","ID_UNIDAD_JUDICIAL":"1503037002","DESC_UNIDAD_JUDICIAL":"Sección nº 2 da audiencia provincial de A Coruña","ID_CONCELLO_SEDE":"15030","ID_PARTIDO_JUDICIAL":"1504","ID_TIPO_UNIDAD":"37","DESC_UNIDAD_JUDICIAL_ES":"Sección nº 2 de la audiencia provincial de A Coruña"}},{"type":"Point","coordinates":[-8.395501936,43.37126587],"properties":{"name":"Sección nº 3 da audiencia provincial de A Coruña","ID_UNIDAD_JUDICIAL":"1503037003","DESC_UNIDAD_JUDICIAL":"Sección nº 3 da audiencia provincial de A Coruña","ID_CONCELLO_SEDE":"15030","ID_PARTIDO_JUDICIAL":"1504","ID_TIPO_UNIDAD":"37","DESC_UNIDAD_JUDICIAL_ES":"Sección nº 3 de la audiencia provincial de A Coruña"}},{"type":"Point","coordinates":[-8.395501936,43.37126587],"properties":{"name":"Sección nº 5 da audiencia provincial de A Coruña","ID_UNIDAD_JUDICIAL":"1503037005","DESC_UNIDAD_JUDICIAL":"Sección nº 5 da audiencia provincial de A Coruña","ID_CONCELLO_SEDE":"15030","ID_PARTIDO_JUDICIAL":"1504","ID_TIPO_UNIDAD":"37","DESC_UNIDAD_JUDICIAL_ES":"Sección nº 5 de la audiencia provincial de A Coruña"}},{"type":"Point","coordinates":[-8.395501936,43.37126587],"properties":{"name":"Xulgado de Primeira Instancia Nº 1 de A Coruña","ID_UNIDAD_JUDICIAL":"1503042001","DESC_UNIDAD_JUDICIAL":"Xulgado de Primeira Instancia Nº 1 de A Coruña","ID_CONCELLO_SEDE":"15030","ID_PARTIDO_JUDICIAL":"1504","ID_TIPO_UNIDAD":"42","DESC_UNIDAD_JUDICIAL_ES":"Juzgado de Primera Instancia Nº 1 de A Coruña"}},{"type":"Point","coordinates":[-8.395501936,43.37126587],"properties":{"name":"Xulgado de Primeira Instancia Nº 2 de A Coruña","ID_UNIDAD_JUDICIAL":"1503042002","DESC_UNIDAD_JUDICIAL":"Xulgado de Primeira Instancia Nº 2 de A Coruña","ID_CONCELLO_SEDE":"15030","ID_PARTIDO_JUDICIAL":"1504","ID_TIPO_UNIDAD":"42","DESC_UNIDAD_JUDICIAL_ES":"Juzgado de Primera Instancia Nº 2 de A Coruña"}},{"type":"Point","coordinates":[-8.395501936,43.37126587],"properties":{"name":"Xulgado de Primeira Instancia Nº 4 de A Coruña","ID_UNIDAD_JUDICIAL":"1503042004","DESC_UNIDAD_JUDICIAL":"Xulgado de Primeira Instancia Nº 4 de A Coruña","ID_CONCELLO_SEDE":"15030","ID_PARTIDO_JUDICIAL":"1504","ID_TIPO_UNIDAD":"42","DESC_UNIDAD_JUDICIAL_ES":"Juzgado de Primera Instancia Nº 4 de A Coruña"}},{"type":"Point","coordinates":[-8.395501936,43.37126587],"properties":{"name":"Xulgado de Primeira Instancia Nº 5 de A Coruña","ID_UNIDAD_JUDICIAL":"1503042005","DESC_UNIDAD_JUDICIAL":"Xulgado de Primeira Instancia Nº 5 de A Coruña","ID_CONCELLO_SEDE":"15030","ID_PARTIDO_JUDICIAL":"1504","ID_TIPO_UNIDAD":"42","DESC_UNIDAD_JUDICIAL_ES":"Juzgado de Primera Instancia Nº 5 de A Coruña"}},{"type":"Point","coordinates":[-8.395501936,43.37126587],"properties":{"name":"Xulgado de Primeira Instancia Nº 6 de A Coruña","ID_UNIDAD_JUDICIAL":"1503042006","DESC_UNIDAD_JUDICIAL":"Xulgado de Primeira Instancia Nº 6 de A Coruña","ID_CONCELLO_SEDE":"15030","ID_PARTIDO_JUDICIAL":"1504","ID_TIPO_UNIDAD":"42","DESC_UNIDAD_JUDICIAL_ES":"Juzgado de Primera Instancia Nº 6 de A Coruña"}},{"type":"Point","coordinates":[-8.395501936,43.37126587],"properties":{"name":"Xulgado de Primeira Instancia Nº 8 de A Coruña","ID_UNIDAD_JUDICIAL":"1503042008","DESC_UNIDAD_JUDICIAL":"Xulgado de Primeira Instancia Nº 8 de A Coruña","ID_CONCELLO_SEDE":"15030","ID_PARTIDO_JUDICIAL":"1504","ID_TIPO_UNIDAD":"42","DESC_UNIDAD_JUDICIAL_ES":"Juzgado de Primera Instancia Nº 8 de A Coruña"}},{"type":"Point","coordinates":[-8.395501936,43.37126587],"properties":{"name":"Xulgado de Primeira Instancia Nº 9 de A Coruña","ID_UNIDAD_JUDICIAL":"1503042009","DESC_UNIDAD_JUDICIAL":"Xulgado de Primeira Instancia Nº 9 de A Coruña","ID_CONCELLO_SEDE":"15030","ID_PARTIDO_JUDICIAL":"1504","ID_TIPO_UNIDAD":"42","DESC_UNIDAD_JUDICIAL_ES":"Juzgado de Primera Instancia Nº 9 de A Coruña"}},{"type":"Point","coordinates":[-8.395501936,43.37126587],"properties":{"name":"Xulgado de Primeira Instancia Nº 10 de A Coruña","ID_UNIDAD_JUDICIAL":"1503042010","DESC_UNIDAD_JUDICIAL":"Xulgado de Primeira Instancia Nº 10 de A Coruña","ID_CONCELLO_SEDE":"15030","ID_PARTIDO_JUDICIAL":"1504","ID_TIPO_UNIDAD":"42","DESC_UNIDAD_JUDICIAL_ES":"Juzgado de Primera Instancia Nº 10 de A Coruña"}},{"type":"Point","coordinates":[-8.395501936,43.37126587],"properties":{"name":"Xulgado de Instrucción Nº 1 de A Coruña","ID_UNIDAD_JUDICIAL":"1503043001","DESC_UNIDAD_JUDICIAL":"Xulgado de Instrucción Nº 1 de A Coruña","ID_CONCELLO_SEDE":"15030","ID_PARTIDO_JUDICIAL":"1504","ID_TIPO_UNIDAD":"43","DESC_UNIDAD_JUDICIAL_ES":"Juzgado de Instrucción Nº 1 de A Coruña"}},{"type":"Point","coordinates":[-8.395501936,43.37126587],"properties":{"name":"Xulgado de Instrucción Nº 2 de A Coruña","ID_UNIDAD_JUDICIAL":"1503043002","DESC_UNIDAD_JUDICIAL":"Xulgado de Instrucción Nº 2 de A Coruña","ID_CONCELLO_SEDE":"15030","ID_PARTIDO_JUDICIAL":"1504","ID_TIPO_UNIDAD":"43","DESC_UNIDAD_JUDICIAL_ES":"Juzgado de Instrucción Nº 2 de A Coruña"}},{"type":"Point","coordinates":[-8.395501936,43.37126587],"properties":{"name":"Xulgado de Instrucción Nº 3 de A Coruña","ID_UNIDAD_JUDICIAL":"1503043003","DESC_UNIDAD_JUDICIAL":"Xulgado de Instrucción Nº 3 de A Coruña","ID_CONCELLO_SEDE":"15030","ID_PARTIDO_JUDICIAL":"1504","ID_TIPO_UNIDAD":"43","DESC_UNIDAD_JUDICIAL_ES":"Juzgado de Instrucción Nº 3 de A Coruña"}},{"type":"Point","coordinates":[-8.395501936,43.37126587],"properties":{"name":"Xulgado de Instrucción Nº 4 de A Coruña","ID_UNIDAD_JUDICIAL":"1503043004","DESC_UNIDAD_JUDICIAL":"Xulgado de Instrucción Nº 4 de A Coruña","ID_CONCELLO_SEDE":"15030","ID_PARTIDO_JUDICIAL":"1504","ID_TIPO_UNIDAD":"43","DESC_UNIDAD_JUDICIAL_ES":"Juzgado de Instrucción Nº 4 de A Coruña"}},{"type":"Point","coordinates":[-8.395501936,43.37126587],"properties":{"name":"Xulgado de Instrucción Nº 6 de A Coruña","ID_UNIDAD_JUDICIAL":"1503043006","DESC_UNIDAD_JUDICIAL":"Xulgado de Instrucción Nº 6 de A Coruña","ID_CONCELLO_SEDE":"15030","ID_PARTIDO_JUDICIAL":"1504","ID_TIPO_UNIDAD":"43","DESC_UNIDAD_JUDICIAL_ES":"Juzgado de Instrucción Nº 6 de A Coruña"}},{"type":"Point","coordinates":[-8.395501936,43.37126587],"properties":{"name":"Servizo común de rexistro e reparto (Social) de A Coruña","ID_UNIDAD_JUDICIAL":"1503044000","DESC_UNIDAD_JUDICIAL":"Servizo común de rexistro e reparto (Social) de A Coruña","ID_CONCELLO_SEDE":"15030","ID_PARTIDO_JUDICIAL":"1504","ID_TIPO_UNIDAD":"44","DESC_UNIDAD_JUDICIAL_ES":"Servicio común de registro y reparto (Social) de A Coruña"}},{"type":"Point","coordinates":[-8.873736403,42.56403321],"properties":{"name":"Xulgado de Paz de A Illa De Arousa","ID_UNIDAD_JUDICIAL":"3690146001","DESC_UNIDAD_JUDICIAL":"Xulgado de Paz de A Illa De Arousa","ID_CONCELLO_SEDE":"36901","ID_PARTIDO_JUDICIAL":"3602","ID_TIPO_UNIDAD":"46","DESC_UNIDAD_JUDICIAL_ES":"Juzgado de Paz de A Illa De Arousa"}},{"type":"Point","coordinates":[-8.642382294,42.60258458],"properties":{"name":"Xulgado de Primeira Instancia e Instrucción Nº 2 de Caldas De Reis","ID_UNIDAD_JUDICIAL":"3600541002","DESC_UNIDAD_JUDICIAL":"Xulgado de Primeira Instancia e Instrucción Nº 2 de Caldas De Reis","ID_CONCELLO_SEDE":"36005","ID_PARTIDO_JUDICIAL":"3612","ID_TIPO_UNIDAD":"41","DESC_UNIDAD_JUDICIAL_ES":"Juzgado de Primera Instancia e Instrucción Nº 2 de Caldas De Reis"}},{"type":"Point","coordinates":[-8.814658997,42.51547459],"properties":{"name":"Xulgado de Primeira Instancia e Instrucción Nº3 de Cambados","ID_UNIDAD_JUDICIAL":"3600641003","DESC_UNIDAD_JUDICIAL":"Xulgado de Primeira Instancia e Instrucción Nº3 de Cambados","ID_CONCELLO_SEDE":"36006","ID_PARTIDO_JUDICIAL":"3609","ID_TIPO_UNIDAD":"41","DESC_UNIDAD_JUDICIAL_ES":"Juzgado de Primera Instancia e Instrucción Nº3 de Cambados"}},{"type":"Point","coordinates":[-8.363300306,42.23211121],"properties":{"name":"Xulgado de Paz de Covelo","ID_UNIDAD_JUDICIAL":"3601346001","DESC_UNIDAD_JUDICIAL":"Xulgado de Paz de Covelo","ID_CONCELLO_SEDE":"36013","ID_PARTIDO_JUDICIAL":"3601","ID_TIPO_UNIDAD":"46","DESC_UNIDAD_JUDICIAL_ES":"Juzgado de Paz de Covelo"}},{"type":"Point","coordinates":[-8.489019317,42.68852024],"properties":{"name":"Xulgado de Primeira Instancia e Instrucción Nº 1 de A Estrada","ID_UNIDAD_JUDICIAL":"3601741001","DESC_UNIDAD_JUDICIAL":"Xulgado de Primeira Instancia e Instrucción Nº 1 de A Estrada","ID_CONCELLO_SEDE":"36017","ID_PARTIDO_JUDICIAL":"3605","ID_TIPO_UNIDAD":"41","DESC_UNIDAD_JUDICIAL_ES":"Juzgado de Primera Instancia e Instrucción Nº 1 de A Estrada"}},{"type":"Point","coordinates":[-8.761521242,42.11063919],"properties":{"name":"Xulgado de Paz de Gondomar","ID_UNIDAD_JUDICIAL":"3602146001","DESC_UNIDAD_JUDICIAL":"Xulgado de Paz de Gondomar","ID_CONCELLO_SEDE":"36021","ID_PARTIDO_JUDICIAL":"3603","ID_TIPO_UNIDAD":"46","DESC_UNIDAD_JUDICIAL_ES":"Juzgado de Paz de Gondomar"}},{"type":"Point","coordinates":[-8.698978231,42.39282938],"properties":{"name":"Xulgado de Primeira Instancia e Instrucción Nº 2 de Marín","ID_UNIDAD_JUDICIAL":"3602641002","DESC_UNIDAD_JUDICIAL":"Xulgado de Primeira Instancia e Instrucción Nº 2 de Marín","ID_CONCELLO_SEDE":"36026","ID_PARTIDO_JUDICIAL":"3613","ID_TIPO_UNIDAD":"41","DESC_UNIDAD_JUDICIAL_ES":"Juzgado de Primera Instancia e Instrucción Nº 2 de Marín"}},{"type":"Point","coordinates":[-8.470391822,42.22514445],"properties":{"name":"Xulgado de Paz de Mondariz-Balneario","ID_UNIDAD_JUDICIAL":"3603146001","DESC_UNIDAD_JUDICIAL":"Xulgado de Paz de Mondariz-Balneario","ID_CONCELLO_SEDE":"36031","ID_PARTIDO_JUDICIAL":"3601","ID_TIPO_UNIDAD":"46","DESC_UNIDAD_JUDICIAL_ES":"Juzgado de Paz de Mondariz-Balneario"}},{"type":"Point","coordinates":[-8.130038039,43.35476927],"properties":{"name":"Xulgado de Paz de Vilarmaior","ID_UNIDAD_JUDICIAL":"1509146001","DESC_UNIDAD_JUDICIAL":"Xulgado de Paz de Vilarmaior","ID_CONCELLO_SEDE":"15091","ID_PARTIDO_JUDICIAL":"1501","ID_TIPO_UNIDAD":"46","DESC_UNIDAD_JUDICIAL_ES":"Juzgado de Paz de Vilarmaior"}},{"type":"Point","coordinates":[-9.034413903,43.11025393],"properties":{"name":"Xulgado de Paz de Vimianzo","ID_UNIDAD_JUDICIAL":"1509246001","DESC_UNIDAD_JUDICIAL":"Xulgado de Paz de Vimianzo","ID_CONCELLO_SEDE":"15092","ID_PARTIDO_JUDICIAL":"1507","ID_TIPO_UNIDAD":"46","DESC_UNIDAD_JUDICIAL_ES":"Juzgado de Paz de Vimianzo"}},{"type":"Point","coordinates":[-7.287606547,42.46637521],"properties":{"name":"Xulgado de Paz de Ribas De Sil","ID_UNIDAD_JUDICIAL":"2705246001","DESC_UNIDAD_JUDICIAL":"Xulgado de Paz de Ribas De Sil","ID_CONCELLO_SEDE":"27052","ID_PARTIDO_JUDICIAL":"2705","ID_TIPO_UNIDAD":"46","DESC_UNIDAD_JUDICIAL_ES":"Juzgado de Paz de Ribas De Sil"}},{"type":"Point","coordinates":[-7.202523706,43.20033137],"properties":{"name":"Xulgado de Paz de Ribeira De Piquín","ID_UNIDAD_JUDICIAL":"2705346001","DESC_UNIDAD_JUDICIAL":"Xulgado de Paz de Ribeira De Piquín","ID_CONCELLO_SEDE":"27053","ID_PARTIDO_JUDICIAL":"2708","ID_TIPO_UNIDAD":"46","DESC_UNIDAD_JUDICIAL_ES":"Juzgado de Paz de Ribeira De Piquín"}},{"type":"Point","coordinates":[-7.261117819,43.3420391],"properties":{"name":"Xulgado de Paz de Riotorto","ID_UNIDAD_JUDICIAL":"2705446001","DESC_UNIDAD_JUDICIAL":"Xulgado de Paz de Riotorto","ID_CONCELLO_SEDE":"27054","ID_PARTIDO_JUDICIAL":"2701","ID_TIPO_UNIDAD":"46","DESC_UNIDAD_JUDICIAL_ES":"Juzgado de Paz de Riotorto"}},{"type":"Point","coordinates":[-7.326522433,42.73077223],"properties":{"name":"Xulgado de Paz de Samos","ID_UNIDAD_JUDICIAL":"2705546001","DESC_UNIDAD_JUDICIAL":"Xulgado de Paz de Samos","ID_CONCELLO_SEDE":"27055","ID_PARTIDO_JUDICIAL":"2707","ID_TIPO_UNIDAD":"46","DESC_UNIDAD_JUDICIAL_ES":"Juzgado de Paz de Samos"}},{"type":"Point","coordinates":[-7.622281878,43.12081156],"properties":{"name":"Xulgado de Paz de Rábade","ID_UNIDAD_JUDICIAL":"2705646001","DESC_UNIDAD_JUDICIAL":"Xulgado de Paz de Rábade","ID_CONCELLO_SEDE":"27056","ID_PARTIDO_JUDICIAL":"2703","ID_TIPO_UNIDAD":"46","DESC_UNIDAD_JUDICIAL_ES":"Juzgado de Paz de Rábade"}},{"type":"Point","coordinates":[-7.416287433,42.77697592],"properties":{"name":"Xulgado de Primeira Instancia e Instrucción Nº1 de Sarria","ID_UNIDAD_JUDICIAL":"2705741001","DESC_UNIDAD_JUDICIAL":"Xulgado de Primeira Instancia e Instrucción Nº1 de Sarria","ID_CONCELLO_SEDE":"27057","ID_PARTIDO_JUDICIAL":"2707","ID_TIPO_UNIDAD":"41","DESC_UNIDAD_JUDICIAL_ES":"Juzgado de Primera Instancia e Instrucción Nº1 de Sarria"}},{"type":"Point","coordinates":[-7.64010255,42.5860932],"properties":{"name":"Xulgado de Paz de O Saviñao","ID_UNIDAD_JUDICIAL":"2705846001","DESC_UNIDAD_JUDICIAL":"Xulgado de Paz de O Saviñao","ID_CONCELLO_SEDE":"27058","ID_PARTIDO_JUDICIAL":"2705","ID_TIPO_UNIDAD":"46","DESC_UNIDAD_JUDICIAL_ES":"Juzgado de Paz de O Saviñao"}},{"type":"Point","coordinates":[-7.586633572,42.4621143],"properties":{"name":"Xulgado de Paz de Sober","ID_UNIDAD_JUDICIAL":"2705946001","DESC_UNIDAD_JUDICIAL":"Xulgado de Paz de Sober","ID_CONCELLO_SEDE":"27059","ID_PARTIDO_JUDICIAL":"2705","ID_TIPO_UNIDAD":"46","DESC_UNIDAD_JUDICIAL_ES":"Juzgado de Paz de Sober"}},{"type":"Point","coordinates":[-7.761891414,42.71622528],"properties":{"name":"Xulgado de Paz de Taboada","ID_UNIDAD_JUDICIAL":"2706046001","DESC_UNIDAD_JUDICIAL":"Xulgado de Paz de Taboada","ID_CONCELLO_SEDE":"27060","ID_PARTIDO_JUDICIAL":"2702","ID_TIPO_UNIDAD":"46","DESC_UNIDAD_JUDICIAL_ES":"Juzgado de Paz de Taboada"}},{"type":"Point","coordinates":[-7.243142736,42.75455759],"properties":{"name":"Xulgado de Paz de Triacastela","ID_UNIDAD_JUDICIAL":"2706246001","DESC_UNIDAD_JUDICIAL":"Xulgado de Paz de Triacastela","ID_CONCELLO_SEDE":"27062","ID_PARTIDO_JUDICIAL":"2709","ID_TIPO_UNIDAD":"46","DESC_UNIDAD_JUDICIAL_ES":"Juzgado de Paz de Triacastela"}},{"type":"Point","coordinates":[-7.437988439,43.54920345],"properties":{"name":"Xulgado de Paz de O Valadouro","ID_UNIDAD_JUDICIAL":"2706346001","DESC_UNIDAD_JUDICIAL":"Xulgado de Paz de O Valadouro","ID_CONCELLO_SEDE":"27063","ID_PARTIDO_JUDICIAL":"2701","ID_TIPO_UNIDAD":"46","DESC_UNIDAD_JUDICIAL_ES":"Juzgado de Paz de O Valadouro"}},{"type":"Point","coordinates":[-7.675139453,43.73251132],"properties":{"name":"Xulgado de Paz de O Vicedo","ID_UNIDAD_JUDICIAL":"2706446001","DESC_UNIDAD_JUDICIAL":"Xulgado de Paz de O Vicedo","ID_CONCELLO_SEDE":"27064","ID_PARTIDO_JUDICIAL":"2706","ID_TIPO_UNIDAD":"46","DESC_UNIDAD_JUDICIAL_ES":"Juzgado de Paz de O Vicedo"}},{"type":"Point","coordinates":[-7.680761317,43.29710869],"properties":{"name":"Xulgado de Primeira Instancia e Instrucción Nº1 de Vilalba","ID_UNIDAD_JUDICIAL":"2706541001","DESC_UNIDAD_JUDICIAL":"Xulgado de Primeira Instancia e Instrucción Nº1 de Vilalba","ID_CONCELLO_SEDE":"27065","ID_PARTIDO_JUDICIAL":"2704","ID_TIPO_UNIDAD":"41","DESC_UNIDAD_JUDICIAL_ES":"Juzgado de Primera Instancia e Instrucción Nº1 de Vilalba"}},{"type":"Point","coordinates":[-7.680761317,43.29710869],"properties":{"name":"Xulgado de Primeira Instancia e Instrucción Nº2 de Vilalba","ID_UNIDAD_JUDICIAL":"2706541002","DESC_UNIDAD_JUDICIAL":"Xulgado de Primeira Instancia e Instrucción Nº2 de Vilalba","ID_CONCELLO_SEDE":"27065","ID_PARTIDO_JUDICIAL":"2704","ID_TIPO_UNIDAD":"41","DESC_UNIDAD_JUDICIAL_ES":"Juzgado de Primera Instancia e Instrucción Nº2 de Vilalba"}},{"type":"Point","coordinates":[-7.597307264,43.66074911],"properties":{"name":"Servizo común de rexistro e reparto (Instancia e Instrución) de Viveiro","ID_UNIDAD_JUDICIAL":"2706641000","DESC_UNIDAD_JUDICIAL":"Servizo común de rexistro e reparto (Instancia e Instrución) de Viveiro","ID_CONCELLO_SEDE":"27066","ID_PARTIDO_JUDICIAL":"2706","ID_TIPO_UNIDAD":"41","DESC_UNIDAD_JUDICIAL_ES":"Servicio común de registro y reparto (Instancia e Instrucción) de Viveiro"}},{"type":"Point","coordinates":[-7.597307264,43.66074911],"properties":{"name":"Xulgado de Primeira Instancia e Instrucción Nº1 de Viveiro","ID_UNIDAD_JUDICIAL":"2706641001","DESC_UNIDAD_JUDICIAL":"Xulgado de Primeira Instancia e Instrucción Nº1 de Viveiro","ID_CONCELLO_SEDE":"27066","ID_PARTIDO_JUDICIAL":"2706","ID_TIPO_UNIDAD":"41","DESC_UNIDAD_JUDICIAL_ES":"Juzgado de Primera Instancia e Instrucción Nº1 de Viveiro"}},{"type":"Point","coordinates":[-7.597307264,43.66074911],"properties":{"name":"Xulgado de Primeira Instancia e Instrucción Nº2 de Viveiro","ID_UNIDAD_JUDICIAL":"2706641002","DESC_UNIDAD_JUDICIAL":"Xulgado de Primeira Instancia e Instrucción Nº2 de Viveiro","ID_CONCELLO_SEDE":"27066","ID_PARTIDO_JUDICIAL":"2706","ID_TIPO_UNIDAD":"41","DESC_UNIDAD_JUDICIAL_ES":"Juzgado de Primera Instancia e Instrucción Nº2 de Viveiro"}},{"type":"Point","coordinates":[-7.251083333,42.89386111],"properties":{"name":"Xulgado de Paz de Baralla","ID_UNIDAD_JUDICIAL":"2790146001","DESC_UNIDAD_JUDICIAL":"Xulgado de Paz de Baralla","ID_CONCELLO_SEDE":"27901","ID_PARTIDO_JUDICIAL":"2709","ID_TIPO_UNIDAD":"46","DESC_UNIDAD_JUDICIAL_ES":"Juzgado de Paz de Baralla"}},{"type":"Point","coordinates":[-7.357704019,43.65912386],"properties":{"name":"Xulgado de Paz de Burela","ID_UNIDAD_JUDICIAL":"2790246001","DESC_UNIDAD_JUDICIAL":"Xulgado de Paz de Burela","ID_CONCELLO_SEDE":"27902","ID_PARTIDO_JUDICIAL":"2706","ID_TIPO_UNIDAD":"46","DESC_UNIDAD_JUDICIAL_ES":"Juzgado de Paz de Burela"}},{"type":"Point","coordinates":[-8.726788225,42.23588559],"properties":{"name":"Xulgado do Penal Nº 3 de Vigo","ID_UNIDAD_JUDICIAL":"3605751003","DESC_UNIDAD_JUDICIAL":"Xulgado do Penal Nº 3 de Vigo","ID_CONCELLO_SEDE":"36057","ID_PARTIDO_JUDICIAL":"3603","ID_TIPO_UNIDAD":"51","DESC_UNIDAD_JUDICIAL_ES":"Juzgado de lo Penal Nº 3 de Vigo"}},{"type":"Point","coordinates":[-8.638079883,42.35967312],"properties":{"name":"Xulgado de Paz de Vilaboa","ID_UNIDAD_JUDICIAL":"3605846001","DESC_UNIDAD_JUDICIAL":"Xulgado de Paz de Vilaboa","ID_CONCELLO_SEDE":"36058","ID_PARTIDO_JUDICIAL":"3607","ID_TIPO_UNIDAD":"46","DESC_UNIDAD_JUDICIAL_ES":"Juzgado de Paz de Vilaboa"}},{"type":"Point","coordinates":[-8.169983456,42.79403339],"properties":{"name":"Xulgado de Paz de Vila De Cruces","ID_UNIDAD_JUDICIAL":"3605946001","DESC_UNIDAD_JUDICIAL":"Xulgado de Paz de Vila De Cruces","ID_CONCELLO_SEDE":"36059","ID_PARTIDO_JUDICIAL":"3608","ID_TIPO_UNIDAD":"46","DESC_UNIDAD_JUDICIAL_ES":"Juzgado de Paz de Vila De Cruces"}},{"type":"Point","coordinates":[-8.763673197,42.59707226],"properties":{"name":"Servizo común de rexistro e reparto (Instancia e Instrución) de Vilagarcia De Arousa","ID_UNIDAD_JUDICIAL":"3606041000","DESC_UNIDAD_JUDICIAL":"Servizo común de rexistro e reparto (Instancia e Instrución) de Vilagarcia De Arousa","ID_CONCELLO_SEDE":"36060","ID_PARTIDO_JUDICIAL":"3602","ID_TIPO_UNIDAD":"41","DESC_UNIDAD_JUDICIAL_ES":"Servicio común de registro y reparto (Instancia e Instrucción) de Vilagarcia De Arousa"}},{"type":"Point","coordinates":[-8.763673197,42.59707226],"properties":{"name":"Xulgado de Primeira Instancia e Instrucción Nº 1 de Vilagarcia De Arousa","ID_UNIDAD_JUDICIAL":"3606041001","DESC_UNIDAD_JUDICIAL":"Xulgado de Primeira Instancia e Instrucción Nº 1 de Vilagarcia De Arousa","ID_CONCELLO_SEDE":"36060","ID_PARTIDO_JUDICIAL":"3602","ID_TIPO_UNIDAD":"41","DESC_UNIDAD_JUDICIAL_ES":"Juzgado de Primera Instancia e Instrucción Nº 1 de Vilagarcia De Arousa"}},{"type":"Point","coordinates":[-8.763673197,42.59707226],"properties":{"name":"Xulgado de Primeira Instancia e Instrucción Nº 2 de Vilagarcia De Arousa","ID_UNIDAD_JUDICIAL":"3606041002","DESC_UNIDAD_JUDICIAL":"Xulgado de Primeira Instancia e Instrucción Nº 2 de Vilagarcia De Arousa","ID_CONCELLO_SEDE":"36060","ID_PARTIDO_JUDICIAL":"3602","ID_TIPO_UNIDAD":"41","DESC_UNIDAD_JUDICIAL_ES":"Juzgado de Primera Instancia e Instrucción Nº 2 de Vilagarcia De Arousa"}},{"type":"Point","coordinates":[-8.826642719,42.56208043],"properties":{"name":"Xulgado de Paz de Vilanova De Arousa","ID_UNIDAD_JUDICIAL":"3606146001","DESC_UNIDAD_JUDICIAL":"Xulgado de Paz de Vilanova De Arousa","ID_CONCELLO_SEDE":"36061","ID_PARTIDO_JUDICIAL":"3602","ID_TIPO_UNIDAD":"46","DESC_UNIDAD_JUDICIAL_ES":"Juzgado de Paz de Vilanova De Arousa"}},{"type":"Point","coordinates":[-7.863836656,42.33553117],"properties":{"name":"Xulgado de Menores Nº 1 de Ourense","ID_UNIDAD_JUDICIAL":"3205453001","DESC_UNIDAD_JUDICIAL":"Xulgado de Menores Nº 1 de Ourense","ID_CONCELLO_SEDE":"32054","ID_PARTIDO_JUDICIAL":"3201","ID_TIPO_UNIDAD":"53","DESC_UNIDAD_JUDICIAL_ES":"Juzgado de Menores Nº 1 de Ourense"}},{"type":"Point","coordinates":[-8.806531958,42.14158005],"properties":{"name":"Xulgado de Paz de Nigrán","ID_UNIDAD_JUDICIAL":"3603546001","DESC_UNIDAD_JUDICIAL":"Xulgado de Paz de Nigrán","ID_CONCELLO_SEDE":"36035","ID_PARTIDO_JUDICIAL":"3603","ID_TIPO_UNIDAD":"46","DESC_UNIDAD_JUDICIAL_ES":"Juzgado de Paz de Nigrán"}},{"type":"Point","coordinates":[-8.643672092,42.43158576],"properties":{"name":"Oficina Rexistro e Reparto de Pontevedra","ID_UNIDAD_JUDICIAL":"3603841000","DESC_UNIDAD_JUDICIAL":"Oficina Rexistro e Reparto de Pontevedra","ID_CONCELLO_SEDE":"36038","ID_PARTIDO_JUDICIAL":"3604","ID_TIPO_UNIDAD":"41","DESC_UNIDAD_JUDICIAL_ES":"Oficina de Registro y Reparto de Pontevedra"}},{"type":"Point","coordinates":[-8.643672092,42.43158576],"properties":{"name":"Xulgado de Primeira Instancia e Instrucción  Nº 5 de Pontevedra","ID_UNIDAD_JUDICIAL":"3603841005","DESC_UNIDAD_JUDICIAL":"Xulgado de Primeira Instancia e Instrucción  Nº 5 de Pontevedra","ID_CONCELLO_SEDE":"36038","ID_PARTIDO_JUDICIAL":"3604","ID_TIPO_UNIDAD":"41","DESC_UNIDAD_JUDICIAL_ES":"Juzgado de Primera Instancia e Instruccion Nº 5 de Pontevedra"}},{"type":"Point","coordinates":[-8.643672092,42.43158576],"properties":{"name":"Xulgado do Social Nº 1 de Pontevedra","ID_UNIDAD_JUDICIAL":"3603844001","DESC_UNIDAD_JUDICIAL":"Xulgado do Social Nº 1 de Pontevedra","ID_CONCELLO_SEDE":"36038","ID_PARTIDO_JUDICIAL":"3604","ID_TIPO_UNIDAD":"44","DESC_UNIDAD_JUDICIAL_ES":"Juzgado de lo Social Nº 1 de Pontevedra"}},{"type":"Point","coordinates":[-8.643672092,42.43158576],"properties":{"name":"Xulgado do Penal Nº 3 de Pontevedra","ID_UNIDAD_JUDICIAL":"3603851003","DESC_UNIDAD_JUDICIAL":"Xulgado do Penal Nº 3 de Pontevedra","ID_CONCELLO_SEDE":"36038","ID_PARTIDO_JUDICIAL":"3604","ID_TIPO_UNIDAD":"51","DESC_UNIDAD_JUDICIAL_ES":"Juzgado de lo Penal Nº 3 de Pontevedra"}},{"type":"Point","coordinates":[-8.6209544,42.16185882],"properties":{"name":"Xulgado de Primeira Instancia e Instrucción Nº 3 de O Porriño","ID_UNIDAD_JUDICIAL":"3603941003","DESC_UNIDAD_JUDICIAL":"Xulgado de Primeira Instancia e Instrucción Nº 3 de O Porriño","ID_CONCELLO_SEDE":"36039","ID_PARTIDO_JUDICIAL":"3611","ID_TIPO_UNIDAD":"41","DESC_UNIDAD_JUDICIAL_ES":"Juzgado de Primera Instancia e Instrucción Nº 3 de O Porriño"}},{"type":"Point","coordinates":[-8.608908311,42.28378165],"properties":{"name":"Xulgado de Primeira Instancia e Instrucción Nº 1 de Redondela","ID_UNIDAD_JUDICIAL":"3604541001","DESC_UNIDAD_JUDICIAL":"Xulgado de Primeira Instancia e Instrucción Nº 1 de Redondela","ID_CONCELLO_SEDE":"36045","ID_PARTIDO_JUDICIAL":"3610","ID_TIPO_UNIDAD":"41","DESC_UNIDAD_JUDICIAL_ES":"Juzgado de Primera Instancia e Instrucción Nº 1 de Redondela"}},{"type":"Point","coordinates":[-8.557863294,42.1023707],"properties":{"name":"Xulgado de Paz de Salceda De Caselas","ID_UNIDAD_JUDICIAL":"3604946001","DESC_UNIDAD_JUDICIAL":"Xulgado de Paz de Salceda De Caselas","ID_CONCELLO_SEDE":"36049","ID_PARTIDO_JUDICIAL":"3611","ID_TIPO_UNIDAD":"46","DESC_UNIDAD_JUDICIAL_ES":"Juzgado de Paz de Salceda De Caselas"}},{"type":"Point","coordinates":[-8.571859714,42.33680364],"properties":{"name":"Xulgado de Paz de Soutomaior","ID_UNIDAD_JUDICIAL":"3605346001","DESC_UNIDAD_JUDICIAL":"Xulgado de Paz de Soutomaior","ID_CONCELLO_SEDE":"36053","ID_PARTIDO_JUDICIAL":"3610","ID_TIPO_UNIDAD":"46","DESC_UNIDAD_JUDICIAL_ES":"Juzgado de Paz de Soutomaior"}},{"type":"Point","coordinates":[-8.726788225,42.23588559],"properties":{"name":"Xulgado de Primeira Instancia Nº 1 de Vigo","ID_UNIDAD_JUDICIAL":"3605742001","DESC_UNIDAD_JUDICIAL":"Xulgado de Primeira Instancia Nº 1 de Vigo","ID_CONCELLO_SEDE":"36057","ID_PARTIDO_JUDICIAL":"3603","ID_TIPO_UNIDAD":"42","DESC_UNIDAD_JUDICIAL_ES":"Juzgado de Primera Instancia Nº 1 de Vigo"}},{"type":"Point","coordinates":[-8.726788225,42.23588559],"properties":{"name":"Xulgado de Primeira Instancia Nº 6 de Vigo","ID_UNIDAD_JUDICIAL":"3605742006","DESC_UNIDAD_JUDICIAL":"Xulgado de Primeira Instancia Nº 6 de Vigo","ID_CONCELLO_SEDE":"36057","ID_PARTIDO_JUDICIAL":"3603","ID_TIPO_UNIDAD":"42","DESC_UNIDAD_JUDICIAL_ES":"Juzgado de Primera Instancia Nº 6 de Vigo"}},{"type":"Point","coordinates":[-8.726788225,42.23588559],"properties":{"name":"Xulgado de Primeira Instancia Nº 10 de Vigo","ID_UNIDAD_JUDICIAL":"3605742010","DESC_UNIDAD_JUDICIAL":"Xulgado de Primeira Instancia Nº 10 de Vigo","ID_CONCELLO_SEDE":"36057","ID_PARTIDO_JUDICIAL":"3603","ID_TIPO_UNIDAD":"42","DESC_UNIDAD_JUDICIAL_ES":"Juzgado de Primera Instancia Nº 10 de Vigo"}},{"type":"Point","coordinates":[-8.726788225,42.23588559],"properties":{"name":"Xulgado de Instrucción Nº 6 de Vigo","ID_UNIDAD_JUDICIAL":"3605743006","DESC_UNIDAD_JUDICIAL":"Xulgado de Instrucción Nº 6 de Vigo","ID_CONCELLO_SEDE":"36057","ID_PARTIDO_JUDICIAL":"3603","ID_TIPO_UNIDAD":"43","DESC_UNIDAD_JUDICIAL_ES":"Juzgado de Instrucción Nº 6 de Vigo"}},{"type":"Point","coordinates":[-8.726788225,42.23588559],"properties":{"name":"Xulgado do Social Nº 3 de Vigo","ID_UNIDAD_JUDICIAL":"3605744003","DESC_UNIDAD_JUDICIAL":"Xulgado do Social Nº 3 de Vigo","ID_CONCELLO_SEDE":"36057","ID_PARTIDO_JUDICIAL":"3603","ID_TIPO_UNIDAD":"44","DESC_UNIDAD_JUDICIAL_ES":"Juzgado de lo Social Nº 3 de Vigo"}},{"type":"Point","coordinates":[-8.726788225,42.23588559],"properties":{"name":"Servizo común de rexistro e reparto (Penal) de Vigo","ID_UNIDAD_JUDICIAL":"3605751000","DESC_UNIDAD_JUDICIAL":"Servizo común de rexistro e reparto (Penal) de Vigo","ID_CONCELLO_SEDE":"36057","ID_PARTIDO_JUDICIAL":"3603","ID_TIPO_UNIDAD":"51","DESC_UNIDAD_JUDICIAL_ES":"Servicio común de registro y reparto (Penal) de Vigo"}},{"type":"Point","coordinates":[-8.763673197,42.59707226],"properties":{"name":"Xulgado de Primeira Instancia e Instrucción Nº 3 de Vilagarcia De Arousa","ID_UNIDAD_JUDICIAL":"3606041003","DESC_UNIDAD_JUDICIAL":"Xulgado de Primeira Instancia e Instrucción Nº 3 de Vilagarcia De Arousa","ID_CONCELLO_SEDE":"36060","ID_PARTIDO_JUDICIAL":"3602","ID_TIPO_UNIDAD":"41","DESC_UNIDAD_JUDICIAL_ES":"Juzgado de Primera Instancia e Instrucción Nº 3 de Vilagarcia De Arousa"}},{"type":"Point","coordinates":[-8.993336922,42.55491668],"properties":{"name":"Xulgado de Primeira Instancia e Instrucción Nº1 de Ribeira","ID_UNIDAD_JUDICIAL":"1507341001","DESC_UNIDAD_JUDICIAL":"Xulgado de Primeira Instancia e Instrucción Nº1 de Ribeira","ID_CONCELLO_SEDE":"15073","ID_PARTIDO_JUDICIAL":"1510","ID_TIPO_UNIDAD":"41","DESC_UNIDAD_JUDICIAL_ES":"Juzgado de Primera Instancia e Instrucción Nº1 de Ribeira"}},{"type":"Point","coordinates":[-8.993336922,42.55491668],"properties":{"name":"Xulgado de Primeira Instancia e Instrucción Nº2 de Ribeira","ID_UNIDAD_JUDICIAL":"1507341002","DESC_UNIDAD_JUDICIAL":"Xulgado de Primeira Instancia e Instrucción Nº2 de Ribeira","ID_CONCELLO_SEDE":"15073","ID_PARTIDO_JUDICIAL":"1510","ID_TIPO_UNIDAD":"41","DESC_UNIDAD_JUDICIAL_ES":"Juzgado de Primera Instancia e Instrucción Nº2 de Ribeira"}},{"type":"Point","coordinates":[-8.993336922,42.55491668],"properties":{"name":"Xulgado de Primeira Instancia e Instrucción Nº3 de Ribeira","ID_UNIDAD_JUDICIAL":"1507341003","DESC_UNIDAD_JUDICIAL":"Xulgado de Primeira Instancia e Instrucción Nº3 de Ribeira","ID_CONCELLO_SEDE":"15073","ID_PARTIDO_JUDICIAL":"1510","ID_TIPO_UNIDAD":"41","DESC_UNIDAD_JUDICIAL_ES":"Juzgado de Primera Instancia e Instrucción Nº3 de Ribeira"}},{"type":"Point","coordinates":[-8.690322783,42.76075414],"properties":{"name":"Xulgado de Paz de Rois","ID_UNIDAD_JUDICIAL":"1507446001","DESC_UNIDAD_JUDICIAL":"Xulgado de Paz de Rois","ID_CONCELLO_SEDE":"15074","ID_PARTIDO_JUDICIAL":"1513","ID_TIPO_UNIDAD":"46","DESC_UNIDAD_JUDICIAL_ES":"Juzgado de Paz de Rois"}},{"type":"Point","coordinates":[-8.250528678,43.35942224],"properties":{"name":"Xulgado de Paz de Sada","ID_UNIDAD_JUDICIAL":"1507546001","DESC_UNIDAD_JUDICIAL":"Xulgado de Paz de Sada","ID_CONCELLO_SEDE":"15075","ID_PARTIDO_JUDICIAL":"1501","ID_TIPO_UNIDAD":"46","DESC_UNIDAD_JUDICIAL_ES":"Juzgado de Paz de Sada"}},{"type":"Point","coordinates":[-8.820120408,43.03653809],"properties":{"name":"Xulgado de Paz de Santa Comba","ID_UNIDAD_JUDICIAL":"1507746001","DESC_UNIDAD_JUDICIAL":"Xulgado de Paz de Santa Comba","ID_CONCELLO_SEDE":"15077","ID_PARTIDO_JUDICIAL":"1511","ID_TIPO_UNIDAD":"46","DESC_UNIDAD_JUDICIAL_ES":"Juzgado de Paz de Santa Comba"}},{"type":"Point","coordinates":[-8.546107172,42.87999954],"properties":{"name":"Servizo común de actos de comunicación e embargos de Santiago De Compostela","ID_UNIDAD_JUDICIAL":"1507800230","DESC_UNIDAD_JUDICIAL":"Servizo común de actos de comunicación e embargos de Santiago De Compostela","ID_CONCELLO_SEDE":"15078","ID_PARTIDO_JUDICIAL":"1502","ID_TIPO_UNIDAD":"00","DESC_UNIDAD_JUDICIAL_ES":"Servicio común de actos de comunicación y embargos de Santiago De Compostela"}},{"type":"Point","coordinates":[-8.546107172,42.87999954],"properties":{"name":"Xulgado de Primeira Instancia e Instrucción  Nº 1 de Santiago De Compostela","ID_UNIDAD_JUDICIAL":"1507841001","DESC_UNIDAD_JUDICIAL":"Xulgado de Primeira Instancia e Instrucción  Nº 1 de Santiago De Compostela","ID_CONCELLO_SEDE":"15078","ID_PARTIDO_JUDICIAL":"1502","ID_TIPO_UNIDAD":"41","DESC_UNIDAD_JUDICIAL_ES":"Juzgado de Primera Instancia e Instruccion Nº 1 de Santiago De Compostela"}},{"type":"Point","coordinates":[-8.546107172,42.87999954],"properties":{"name":"Xulgado de Primeira Instancia e Instrucción  Nº 2 de Santiago De Compostela","ID_UNIDAD_JUDICIAL":"1507841002","DESC_UNIDAD_JUDICIAL":"Xulgado de Primeira Instancia e Instrucción  Nº 2 de Santiago De Compostela","ID_CONCELLO_SEDE":"15078","ID_PARTIDO_JUDICIAL":"1502","ID_TIPO_UNIDAD":"41","DESC_UNIDAD_JUDICIAL_ES":"Juzgado de Primera Instancia e Instruccion Nº 2 de Santiago De Compostela"}},{"type":"Point","coordinates":[-8.546107172,42.87999954],"properties":{"name":"Xulgado de Primeira Instancia e Instrucción  Nº 3 de Santiago De Compostela","ID_UNIDAD_JUDICIAL":"1507841003","DESC_UNIDAD_JUDICIAL":"Xulgado de Primeira Instancia e Instrucción  Nº 3 de Santiago De Compostela","ID_CONCELLO_SEDE":"15078","ID_PARTIDO_JUDICIAL":"1502","ID_TIPO_UNIDAD":"41","DESC_UNIDAD_JUDICIAL_ES":"Juzgado de Primera Instancia e Instruccion Nº 3 de Santiago De Compostela"}},{"type":"Point","coordinates":[-8.546107172,42.87999954],"properties":{"name":"Xulgado de Primeira Instancia e Instrucción  Nº 5 de Santiago De Compostela","ID_UNIDAD_JUDICIAL":"1507841005","DESC_UNIDAD_JUDICIAL":"Xulgado de Primeira Instancia e Instrucción  Nº 5 de Santiago De Compostela","ID_CONCELLO_SEDE":"15078","ID_PARTIDO_JUDICIAL":"1502","ID_TIPO_UNIDAD":"41","DESC_UNIDAD_JUDICIAL_ES":"Juzgado de Primera Instancia e Instruccion Nº 5 de Santiago De Compostela"}},{"type":"Point","coordinates":[-8.546107172,42.87999954],"properties":{"name":"Xulgado de Primeira Instancia e Instrucción  Nº 6 de Santiago De Compostela","ID_UNIDAD_JUDICIAL":"1507841006","DESC_UNIDAD_JUDICIAL":"Xulgado de Primeira Instancia e Instrucción  Nº 6 de Santiago De Compostela","ID_CONCELLO_SEDE":"15078","ID_PARTIDO_JUDICIAL":"1502","ID_TIPO_UNIDAD":"41","DESC_UNIDAD_JUDICIAL_ES":"Juzgado de Primera Instancia e Instruccion Nº 6 de Santiago De Compostela"}},{"type":"Point","coordinates":[-8.546107172,42.87999954],"properties":{"name":"Servizo común de rexistro e reparto (Social) de Santiago De Compostela","ID_UNIDAD_JUDICIAL":"1507844000","DESC_UNIDAD_JUDICIAL":"Servizo común de rexistro e reparto (Social) de Santiago De Compostela","ID_CONCELLO_SEDE":"15078","ID_PARTIDO_JUDICIAL":"1502","ID_TIPO_UNIDAD":"44","DESC_UNIDAD_JUDICIAL_ES":"Servicio común de registro y reparto (Social) de Santiago De Compostela"}},{"type":"Point","coordinates":[-8.546107172,42.87999954],"properties":{"name":"Xulgado do Social Nº 1 de Santiago De Compostela","ID_UNIDAD_JUDICIAL":"1507844001","DESC_UNIDAD_JUDICIAL":"Xulgado do Social Nº 1 de Santiago De Compostela","ID_CONCELLO_SEDE":"15078","ID_PARTIDO_JUDICIAL":"1502","ID_TIPO_UNIDAD":"44","DESC_UNIDAD_JUDICIAL_ES":"Juzgado de lo Social Nº 1 de Santiago De Compostela"}},{"type":"Point","coordinates":[-8.546107172,42.87999954],"properties":{"name":"Xulgado do Social Nº 2 de Santiago De Compostela","ID_UNIDAD_JUDICIAL":"1507844002","DESC_UNIDAD_JUDICIAL":"Xulgado do Social Nº 2 de Santiago De Compostela","ID_CONCELLO_SEDE":"15078","ID_PARTIDO_JUDICIAL":"1502","ID_TIPO_UNIDAD":"44","DESC_UNIDAD_JUDICIAL_ES":"Juzgado de lo Social Nº 2 de Santiago De Compostela"}},{"type":"Point","coordinates":[-8.546107172,42.87999954],"properties":{"name":"Xulgado do Contencioso Administrativo Nº 1 de Santiago De Compostela","ID_UNIDAD_JUDICIAL":"1507845001","DESC_UNIDAD_JUDICIAL":"Xulgado do Contencioso Administrativo Nº 1 de Santiago De Compostela","ID_CONCELLO_SEDE":"15078","ID_PARTIDO_JUDICIAL":"1502","ID_TIPO_UNIDAD":"45","DESC_UNIDAD_JUDICIAL_ES":"Juzgado de lo Contencioso Administrativo Nº 1 de Santiago De Compostela"}},{"type":"Point","coordinates":[-8.546107172,42.87999954],"properties":{"name":"Servizo común de rexistro e reparto (Penal) de Santiago De Compostela","ID_UNIDAD_JUDICIAL":"1507851000","DESC_UNIDAD_JUDICIAL":"Servizo común de rexistro e reparto (Penal) de Santiago De Compostela","ID_CONCELLO_SEDE":"15078","ID_PARTIDO_JUDICIAL":"1502","ID_TIPO_UNIDAD":"51","DESC_UNIDAD_JUDICIAL_ES":"Servicio común de registro y reparto (Penal) de Santiago De Compostela"}},{"type":"Point","coordinates":[-8.546107172,42.87999954],"properties":{"name":"Xulgado do Penal Nº 1 de Santiago De Compostela","ID_UNIDAD_JUDICIAL":"1507851001","DESC_UNIDAD_JUDICIAL":"Xulgado do Penal Nº 1 de Santiago De Compostela","ID_CONCELLO_SEDE":"15078","ID_PARTIDO_JUDICIAL":"1502","ID_TIPO_UNIDAD":"51","DESC_UNIDAD_JUDICIAL_ES":"Juzgado de lo Penal Nº 1 de Santiago De Compostela"}},{"type":"Point","coordinates":[-8.038877669,42.84611212],"properties":{"name":"Xulgado de Paz de Santiso","ID_UNIDAD_JUDICIAL":"1507946001","DESC_UNIDAD_JUDICIAL":"Xulgado de Paz de Santiso","ID_CONCELLO_SEDE":"15079","ID_PARTIDO_JUDICIAL":"1508","ID_TIPO_UNIDAD":"46","DESC_UNIDAD_JUDICIAL_ES":"Juzgado de Paz de Santiso"}},{"type":"Point","coordinates":[-8.022187808,43.04031852],"properties":{"name":"Xulgado de Paz de Sobrado","ID_UNIDAD_JUDICIAL":"1508046001","DESC_UNIDAD_JUDICIAL":"Xulgado de Paz de Sobrado","ID_CONCELLO_SEDE":"15080","ID_PARTIDO_JUDICIAL":"1501","ID_TIPO_UNIDAD":"46","DESC_UNIDAD_JUDICIAL_ES":"Juzgado de Paz de Sobrado"}},{"type":"Point","coordinates":[-7.943973281,43.53478328],"properties":{"name":"Xulgado de Paz de As Somozas","ID_UNIDAD_JUDICIAL":"1508146001","DESC_UNIDAD_JUDICIAL":"Xulgado de Paz de As Somozas","ID_CONCELLO_SEDE":"15081","ID_PARTIDO_JUDICIAL":"1503","ID_TIPO_UNIDAD":"46","DESC_UNIDAD_JUDICIAL_ES":"Juzgado de Paz de As Somozas"}},{"type":"Point","coordinates":[-8.549002886,42.79505474],"properties":{"name":"Xulgado de Paz de Teo","ID_UNIDAD_JUDICIAL":"1508246001","DESC_UNIDAD_JUDICIAL":"Xulgado de Paz de Teo","ID_CONCELLO_SEDE":"15082","ID_PARTIDO_JUDICIAL":"1502","ID_TIPO_UNIDAD":"46","DESC_UNIDAD_JUDICIAL_ES":"Juzgado de Paz de Teo"}},{"type":"Point","coordinates":[-8.552053811,43.08839188],"properties":{"name":"Xulgado de Paz de Tordoia","ID_UNIDAD_JUDICIAL":"1508446001","DESC_UNIDAD_JUDICIAL":"Xulgado de Paz de Tordoia","ID_CONCELLO_SEDE":"15084","ID_PARTIDO_JUDICIAL":"1514","ID_TIPO_UNIDAD":"46","DESC_UNIDAD_JUDICIAL_ES":"Juzgado de Paz de Tordoia"}},{"type":"Point","coordinates":[-8.303804081,42.86713874],"properties":{"name":"Xulgado de Paz de Touro","ID_UNIDAD_JUDICIAL":"1508546001","DESC_UNIDAD_JUDICIAL":"Xulgado de Paz de Touro","ID_CONCELLO_SEDE":"15085","ID_PARTIDO_JUDICIAL":"1508","ID_TIPO_UNIDAD":"46","DESC_UNIDAD_JUDICIAL_ES":"Juzgado de Paz de Touro"}},{"type":"Point","coordinates":[-8.517338283,43.02662965],"properties":{"name":"Xulgado de Paz de Trazo","ID_UNIDAD_JUDICIAL":"1508646001","DESC_UNIDAD_JUDICIAL":"Xulgado de Paz de Trazo","ID_CONCELLO_SEDE":"15086","ID_PARTIDO_JUDICIAL":"1514","ID_TIPO_UNIDAD":"46","DESC_UNIDAD_JUDICIAL_ES":"Juzgado de Paz de Trazo"}},{"type":"Point","coordinates":[-8.656218314,43.02659978],"properties":{"name":"Xulgado de Paz de Val Do Dubra","ID_UNIDAD_JUDICIAL":"1508846001","DESC_UNIDAD_JUDICIAL":"Xulgado de Paz de Val Do Dubra","ID_CONCELLO_SEDE":"15088","ID_PARTIDO_JUDICIAL":"1514","ID_TIPO_UNIDAD":"46","DESC_UNIDAD_JUDICIAL_ES":"Juzgado de Paz de Val Do Dubra"}},{"type":"Point","coordinates":[-8.173536814,43.28555892],"properties":{"name":"Xulgado de Paz de Paderne","ID_UNIDAD_JUDICIAL":"1506446001","DESC_UNIDAD_JUDICIAL":"Xulgado de Paz de Paderne","ID_CONCELLO_SEDE":"15064","ID_PARTIDO_JUDICIAL":"1501","ID_TIPO_UNIDAD":"46","DESC_UNIDAD_JUDICIAL_ES":"Juzgado de Paz de Paderne"}},{"type":"Point","coordinates":[-8.6604106,42.73732717],"properties":{"name":"Servizo común de rexistro e reparto (Instancia e Instrución) de Padrón","ID_UNIDAD_JUDICIAL":"1506541000","DESC_UNIDAD_JUDICIAL":"Servizo común de rexistro e reparto (Instancia e Instrución) de Padrón","ID_CONCELLO_SEDE":"15065","ID_PARTIDO_JUDICIAL":"1513","ID_TIPO_UNIDAD":"41","DESC_UNIDAD_JUDICIAL_ES":"Servicio común de registro y reparto (Instancia e Instrucción) de Padrón"}},{"type":"Point","coordinates":[-8.6604106,42.73732717],"properties":{"name":"Xulgado de Primeira Instancia e Instrucción Nº1 de Padrón","ID_UNIDAD_JUDICIAL":"1506541001","DESC_UNIDAD_JUDICIAL":"Xulgado de Primeira Instancia e Instrucción Nº1 de Padrón","ID_CONCELLO_SEDE":"15065","ID_PARTIDO_JUDICIAL":"1513","ID_TIPO_UNIDAD":"41","DESC_UNIDAD_JUDICIAL_ES":"Juzgado de Primera Instancia e Instrucción Nº1 de Padrón"}},{"type":"Point","coordinates":[-8.939010739,42.60323453],"properties":{"name":"Xulgado de Paz de A Pobra Do Caramiñal","ID_UNIDAD_JUDICIAL":"1506746001","DESC_UNIDAD_JUDICIAL":"Xulgado de Paz de A Pobra Do Caramiñal","ID_CONCELLO_SEDE":"15067","ID_PARTIDO_JUDICIAL":"1510","ID_TIPO_UNIDAD":"46","DESC_UNIDAD_JUDICIAL_ES":"Juzgado de Paz de A Pobra Do Caramiñal"}},{"type":"Point","coordinates":[-8.900697261,43.24325308],"properties":{"name":"Xulgado de Paz de Ponteceso","ID_UNIDAD_JUDICIAL":"1506846001","DESC_UNIDAD_JUDICIAL":"Xulgado de Paz de Ponteceso","ID_CONCELLO_SEDE":"15068","ID_PARTIDO_JUDICIAL":"1506","ID_TIPO_UNIDAD":"46","DESC_UNIDAD_JUDICIAL_ES":"Juzgado de Paz de Ponteceso"}},{"type":"Point","coordinates":[-8.171862778,43.40790879],"properties":{"name":"Xulgado de Paz de Pontedeume","ID_UNIDAD_JUDICIAL":"1506946001","DESC_UNIDAD_JUDICIAL":"Xulgado de Paz de Pontedeume","ID_CONCELLO_SEDE":"15069","ID_PARTIDO_JUDICIAL":"1501","ID_TIPO_UNIDAD":"46","DESC_UNIDAD_JUDICIAL_ES":"Juzgado de Paz de Pontedeume"}},{"type":"Point","coordinates":[-9.006363639,42.72461934],"properties":{"name":"Xulgado de Paz de Porto Do Son","ID_UNIDAD_JUDICIAL":"1507146001","DESC_UNIDAD_JUDICIAL":"Xulgado de Paz de Porto Do Son","ID_CONCELLO_SEDE":"15071","ID_PARTIDO_JUDICIAL":"1505","ID_TIPO_UNIDAD":"46","DESC_UNIDAD_JUDICIAL_ES":"Juzgado de Paz de Porto Do Son"}},{"type":"Point","coordinates":[-8.818353433,42.65198057],"properties":{"name":"Xulgado de Paz de Rianxo","ID_UNIDAD_JUDICIAL":"1507246001","DESC_UNIDAD_JUDICIAL":"Xulgado de Paz de Rianxo","ID_CONCELLO_SEDE":"15072","ID_PARTIDO_JUDICIAL":"1513","ID_TIPO_UNIDAD":"46","DESC_UNIDAD_JUDICIAL_ES":"Juzgado de Paz de Rianxo"}},{"type":"Point","coordinates":[-8.993336922,42.55491668],"properties":{"name":"Servizo común de rexistro e reparto (Instancia e Instrución) de Ribeira","ID_UNIDAD_JUDICIAL":"1507341000","DESC_UNIDAD_JUDICIAL":"Servizo común de rexistro e reparto (Instancia e Instrución) de Ribeira","ID_CONCELLO_SEDE":"15073","ID_PARTIDO_JUDICIAL":"1510","ID_TIPO_UNIDAD":"41","DESC_UNIDAD_JUDICIAL_ES":"Servicio común de registro y reparto (Instancia e Instrucción) de Ribeira"}},{"type":"Point","coordinates":[-8.482097794,42.77661682],"properties":{"name":"Xulgado de Paz de Vedra","ID_UNIDAD_JUDICIAL":"1508946001","DESC_UNIDAD_JUDICIAL":"Xulgado de Paz de Vedra","ID_CONCELLO_SEDE":"15089","ID_PARTIDO_JUDICIAL":"1502","ID_TIPO_UNIDAD":"46","DESC_UNIDAD_JUDICIAL_ES":"Juzgado de Paz de Vedra"}},{"type":"Point","coordinates":[-8.121643083,43.07283144],"properties":{"name":"Xulgado de Paz de Vilasantar","ID_UNIDAD_JUDICIAL":"1509046001","DESC_UNIDAD_JUDICIAL":"Xulgado de Paz de Vilasantar","ID_CONCELLO_SEDE":"15090","ID_PARTIDO_JUDICIAL":"1501","ID_TIPO_UNIDAD":"46","DESC_UNIDAD_JUDICIAL_ES":"Juzgado de Paz de Vilasantar"}},{"type":"Point","coordinates":[-7.642234017,43.56466078],"properties":{"name":"Xulgado de Paz de Ourol","ID_UNIDAD_JUDICIAL":"2703846001","DESC_UNIDAD_JUDICIAL":"Xulgado de Paz de Ourol","ID_CONCELLO_SEDE":"27038","ID_PARTIDO_JUDICIAL":"2706","ID_TIPO_UNIDAD":"46","DESC_UNIDAD_JUDICIAL_ES":"Juzgado de Paz de Ourol"}},{"type":"Point","coordinates":[-7.869267642,42.87311805],"properties":{"name":"Xulgado de Paz de Palas De Rei","ID_UNIDAD_JUDICIAL":"2704046001","DESC_UNIDAD_JUDICIAL":"Xulgado de Paz de Palas De Rei","ID_CONCELLO_SEDE":"27040","ID_PARTIDO_JUDICIAL":"2702","ID_TIPO_UNIDAD":"46","DESC_UNIDAD_JUDICIAL_ES":"Juzgado de Paz de Palas De Rei"}},{"type":"Point","coordinates":[-7.62328355,42.50578767],"properties":{"name":"Xulgado de Paz de Pantón","ID_UNIDAD_JUDICIAL":"2704146001","DESC_UNIDAD_JUDICIAL":"Xulgado de Paz de Pantón","ID_CONCELLO_SEDE":"27041","ID_PARTIDO_JUDICIAL":"2705","ID_TIPO_UNIDAD":"46","DESC_UNIDAD_JUDICIAL_ES":"Juzgado de Paz de Pantón"}},{"type":"Point","coordinates":[-7.565183272,42.76141448],"properties":{"name":"Xulgado de Paz de Paradela","ID_UNIDAD_JUDICIAL":"2704246001","DESC_UNIDAD_JUDICIAL":"Xulgado de Paz de Paradela","ID_CONCELLO_SEDE":"27042","ID_PARTIDO_JUDICIAL":"2707","ID_TIPO_UNIDAD":"46","DESC_UNIDAD_JUDICIAL_ES":"Juzgado de Paz de Paradela"}},{"type":"Point","coordinates":[-7.499127547,42.84437871],"properties":{"name":"Xulgado de Paz de O Páramo","ID_UNIDAD_JUDICIAL":"2704346001","DESC_UNIDAD_JUDICIAL":"Xulgado de Paz de O Páramo","ID_CONCELLO_SEDE":"27043","ID_PARTIDO_JUDICIAL":"2707","ID_TIPO_UNIDAD":"46","DESC_UNIDAD_JUDICIAL_ES":"Juzgado de Paz de O Páramo"}},{"type":"Point","coordinates":[-7.02157755,42.72686364],"properties":{"name":"Xulgado de Paz de Pedrafita Do Cebreiro","ID_UNIDAD_JUDICIAL":"2704546001","DESC_UNIDAD_JUDICIAL":"Xulgado de Paz de Pedrafita Do Cebreiro","ID_CONCELLO_SEDE":"27045","ID_PARTIDO_JUDICIAL":"2709","ID_TIPO_UNIDAD":"46","DESC_UNIDAD_JUDICIAL_ES":"Juzgado de Paz de Pedrafita Do Cebreiro"}},{"type":"Point","coordinates":[-7.353424681,43.1298103],"properties":{"name":"Xulgado de Paz de Pol","ID_UNIDAD_JUDICIAL":"2704646001","DESC_UNIDAD_JUDICIAL":"Xulgado de Paz de Pol","ID_CONCELLO_SEDE":"27046","ID_PARTIDO_JUDICIAL":"2703","ID_TIPO_UNIDAD":"46","DESC_UNIDAD_JUDICIAL_ES":"Juzgado de Paz de Pol"}},{"type":"Point","coordinates":[-7.393326758,42.55731338],"properties":{"name":"Xulgado de Paz de A Pobra Do Brollón","ID_UNIDAD_JUDICIAL":"2704746001","DESC_UNIDAD_JUDICIAL":"Xulgado de Paz de A Pobra Do Brollón","ID_CONCELLO_SEDE":"27047","ID_PARTIDO_JUDICIAL":"2705","ID_TIPO_UNIDAD":"46","DESC_UNIDAD_JUDICIAL_ES":"Juzgado de Paz de A Pobra Do Brollón"}},{"type":"Point","coordinates":[-7.615982844,42.80768725],"properties":{"name":"Xulgado de Paz de Portomarín","ID_UNIDAD_JUDICIAL":"2704946001","DESC_UNIDAD_JUDICIAL":"Xulgado de Paz de Portomarín","ID_CONCELLO_SEDE":"27049","ID_PARTIDO_JUDICIAL":"2702","ID_TIPO_UNIDAD":"46","DESC_UNIDAD_JUDICIAL_ES":"Juzgado de Paz de Portomarín"}},{"type":"Point","coordinates":[-7.274041539,42.47621289],"properties":{"name":"Xulgado de Paz de Quiroga","ID_UNIDAD_JUDICIAL":"2705046001","DESC_UNIDAD_JUDICIAL":"Xulgado de Paz de Quiroga","ID_CONCELLO_SEDE":"27050","ID_PARTIDO_JUDICIAL":"2705","ID_TIPO_UNIDAD":"46","DESC_UNIDAD_JUDICIAL_ES":"Juzgado de Paz de Quiroga"}},{"type":"Point","coordinates":[-7.039512003,43.53629223],"properties":{"name":"Xulgado de Paz de Ribadeo","ID_UNIDAD_JUDICIAL":"2705146001","DESC_UNIDAD_JUDICIAL":"Xulgado de Paz de Ribadeo","ID_CONCELLO_SEDE":"27051","ID_PARTIDO_JUDICIAL":"2701","ID_TIPO_UNIDAD":"46","DESC_UNIDAD_JUDICIAL_ES":"Juzgado de Paz de Ribadeo"}},{"type":"Point","coordinates":[-8.643672092,42.43158576],"properties":{"name":"Servizo común de rexistro e reparto (Social) de Pontevedra","ID_UNIDAD_JUDICIAL":"3603844000","DESC_UNIDAD_JUDICIAL":"Servizo común de rexistro e reparto (Social) de Pontevedra","ID_CONCELLO_SEDE":"36038","ID_PARTIDO_JUDICIAL":"3604","ID_TIPO_UNIDAD":"44","DESC_UNIDAD_JUDICIAL_ES":"Servicio común de registro y reparto (Social) de Pontevedra"}},{"type":"Point","coordinates":[-8.643672092,42.43158576],"properties":{"name":"Xulgado do Social Nº 2 de Pontevedra","ID_UNIDAD_JUDICIAL":"3603844002","DESC_UNIDAD_JUDICIAL":"Xulgado do Social Nº 2 de Pontevedra","ID_CONCELLO_SEDE":"36038","ID_PARTIDO_JUDICIAL":"3604","ID_TIPO_UNIDAD":"44","DESC_UNIDAD_JUDICIAL_ES":"Juzgado de lo Social Nº 2 de Pontevedra"}},{"type":"Point","coordinates":[-8.643672092,42.43158576],"properties":{"name":"Xulgado do Social Nº 3 de Pontevedra","ID_UNIDAD_JUDICIAL":"3603844003","DESC_UNIDAD_JUDICIAL":"Xulgado do Social Nº 3 de Pontevedra","ID_CONCELLO_SEDE":"36038","ID_PARTIDO_JUDICIAL":"3604","ID_TIPO_UNIDAD":"44","DESC_UNIDAD_JUDICIAL_ES":"Juzgado de lo Social Nº 3 de Pontevedra"}},{"type":"Point","coordinates":[-8.643672092,42.43158576],"properties":{"name":"Xulgado do Contencioso Administrativo Nº 1 de Pontevedra","ID_UNIDAD_JUDICIAL":"3603845001","DESC_UNIDAD_JUDICIAL":"Xulgado do Contencioso Administrativo Nº 1 de Pontevedra","ID_CONCELLO_SEDE":"36038","ID_PARTIDO_JUDICIAL":"3604","ID_TIPO_UNIDAD":"45","DESC_UNIDAD_JUDICIAL_ES":"Juzgado de lo Contencioso Administrativo Nº 1 de Pontevedra"}},{"type":"Point","coordinates":[-8.643672092,42.43158576],"properties":{"name":"Xulgado do Contencioso Administrativo Nº 2 de Pontevedra","ID_UNIDAD_JUDICIAL":"3603845002","DESC_UNIDAD_JUDICIAL":"Xulgado do Contencioso Administrativo Nº 2 de Pontevedra","ID_CONCELLO_SEDE":"36038","ID_PARTIDO_JUDICIAL":"3604","ID_TIPO_UNIDAD":"45","DESC_UNIDAD_JUDICIAL_ES":"Juzgado de lo Contencioso Administrativo Nº 2 de Pontevedra"}},{"type":"Point","coordinates":[-8.643672092,42.43158576],"properties":{"name":"Xulgado do Contencioso Administrativo Nº 3 de Pontevedra","ID_UNIDAD_JUDICIAL":"3603845003","DESC_UNIDAD_JUDICIAL":"Xulgado do Contencioso Administrativo Nº 3 de Pontevedra","ID_CONCELLO_SEDE":"36038","ID_PARTIDO_JUDICIAL":"3604","ID_TIPO_UNIDAD":"45","DESC_UNIDAD_JUDICIAL_ES":"Juzgado de lo Contencioso Administrativo Nº 3 de Pontevedra"}},{"type":"Point","coordinates":[-8.643672092,42.43158576],"properties":{"name":"Servizo común de rexistro e reparto (Penal) de Pontevedra","ID_UNIDAD_JUDICIAL":"3603851000","DESC_UNIDAD_JUDICIAL":"Servizo común de rexistro e reparto (Penal) de Pontevedra","ID_CONCELLO_SEDE":"36038","ID_PARTIDO_JUDICIAL":"3604","ID_TIPO_UNIDAD":"51","DESC_UNIDAD_JUDICIAL_ES":"Servicio común de registro y reparto (Penal) de Pontevedra"}},{"type":"Point","coordinates":[-8.643672092,42.43158576],"properties":{"name":"Xulgado do Penal Nº 1 de Pontevedra","ID_UNIDAD_JUDICIAL":"3603851001","DESC_UNIDAD_JUDICIAL":"Xulgado do Penal Nº 1 de Pontevedra","ID_CONCELLO_SEDE":"36038","ID_PARTIDO_JUDICIAL":"3604","ID_TIPO_UNIDAD":"51","DESC_UNIDAD_JUDICIAL_ES":"Juzgado de lo Penal Nº 1 de Pontevedra"}},{"type":"Point","coordinates":[-8.643672092,42.43158576],"properties":{"name":"Xulgado do Penal Nº 2 de Pontevedra","ID_UNIDAD_JUDICIAL":"3603851002","DESC_UNIDAD_JUDICIAL":"Xulgado do Penal Nº 2 de Pontevedra","ID_CONCELLO_SEDE":"36038","ID_PARTIDO_JUDICIAL":"3604","ID_TIPO_UNIDAD":"51","DESC_UNIDAD_JUDICIAL_ES":"Juzgado de lo Penal Nº 2 de Pontevedra"}},{"type":"Point","coordinates":[-8.643672092,42.43158576],"properties":{"name":"Xulgado de Vigilancia Penitenciaria Nº 2 de Pontevedra","ID_UNIDAD_JUDICIAL":"3603852002","DESC_UNIDAD_JUDICIAL":"Xulgado de Vigilancia Penitenciaria Nº 2 de Pontevedra","ID_CONCELLO_SEDE":"36038","ID_PARTIDO_JUDICIAL":"3604","ID_TIPO_UNIDAD":"52","DESC_UNIDAD_JUDICIAL_ES":"Juzgado de Vigilancia Penitenciaria Nº 2 de Pontevedra"}},{"type":"Point","coordinates":[-8.643672092,42.43158576],"properties":{"name":"Xulgado de Menores Nº 1 de Pontevedra","ID_UNIDAD_JUDICIAL":"3603853001","DESC_UNIDAD_JUDICIAL":"Xulgado de Menores Nº 1 de Pontevedra","ID_CONCELLO_SEDE":"36038","ID_PARTIDO_JUDICIAL":"3604","ID_TIPO_UNIDAD":"53","DESC_UNIDAD_JUDICIAL_ES":"Juzgado de Menores Nº 1 de Pontevedra"}},{"type":"Point","coordinates":[-8.6209544,42.16185882],"properties":{"name":"Servizo común de rexistro e reparto (Instancia e Instrución) de O Porriño","ID_UNIDAD_JUDICIAL":"3603941000","DESC_UNIDAD_JUDICIAL":"Servizo común de rexistro e reparto (Instancia e Instrución) de O Porriño","ID_CONCELLO_SEDE":"36039","ID_PARTIDO_JUDICIAL":"3611","ID_TIPO_UNIDAD":"41","DESC_UNIDAD_JUDICIAL_ES":"Servicio común de registro y reparto (Instancia e Instrucción) de O Porriño"}},{"type":"Point","coordinates":[-8.6209544,42.16185882],"properties":{"name":"Xulgado de Primeira Instancia e Instrucción Nº 1 de O Porriño","ID_UNIDAD_JUDICIAL":"3603941001","DESC_UNIDAD_JUDICIAL":"Xulgado de Primeira Instancia e Instrucción Nº 1 de O Porriño","ID_CONCELLO_SEDE":"36039","ID_PARTIDO_JUDICIAL":"3611","ID_TIPO_UNIDAD":"41","DESC_UNIDAD_JUDICIAL_ES":"Juzgado de Primera Instancia e Instrucción Nº 1 de O Porriño"}},{"type":"Point","coordinates":[-8.6209544,42.16185882],"properties":{"name":"Xulgado de Primeira Instancia e Instrucción Nº 2 de O Porriño","ID_UNIDAD_JUDICIAL":"3603941002","DESC_UNIDAD_JUDICIAL":"Xulgado de Primeira Instancia e Instrucción Nº 2 de O Porriño","ID_CONCELLO_SEDE":"36039","ID_PARTIDO_JUDICIAL":"3611","ID_TIPO_UNIDAD":"41","DESC_UNIDAD_JUDICIAL_ES":"Juzgado de Primera Instancia e Instrucción Nº 2 de O Porriño"}},{"type":"Point","coordinates":[-7.972861119,42.9673783],"properties":{"name":"Xulgado de Paz de Toques","ID_UNIDAD_JUDICIAL":"1508346001","DESC_UNIDAD_JUDICIAL":"Xulgado de Paz de Toques","ID_CONCELLO_SEDE":"15083","ID_PARTIDO_JUDICIAL":"1508","ID_TIPO_UNIDAD":"46","DESC_UNIDAD_JUDICIAL_ES":"Juzgado de Paz de Toques"}},{"type":"Point","coordinates":[-8.143475986,43.60685535],"properties":{"name":"Xulgado de Paz de Valdoviño","ID_UNIDAD_JUDICIAL":"1508746001","DESC_UNIDAD_JUDICIAL":"Xulgado de Paz de Valdoviño","ID_CONCELLO_SEDE":"15087","ID_PARTIDO_JUDICIAL":"1503","ID_TIPO_UNIDAD":"46","DESC_UNIDAD_JUDICIAL_ES":"Juzgado de Paz de Valdoviño"}},{"type":"Point","coordinates":[-8.133547853,42.16509424],"properties":{"name":"Xulgado de Paz de Pontedeva","ID_UNIDAD_JUDICIAL":"3206446001","DESC_UNIDAD_JUDICIAL":"Xulgado de Paz de Pontedeva","ID_CONCELLO_SEDE":"32064","ID_PARTIDO_JUDICIAL":"3202","ID_TIPO_UNIDAD":"46","DESC_UNIDAD_JUDICIAL_ES":"Juzgado de Paz de Pontedeva"}},{"type":"Point","coordinates":[-7.801700519,42.19017116],"properties":{"name":"Xulgado de Paz de Allariz","ID_UNIDAD_JUDICIAL":"3200146001","DESC_UNIDAD_JUDICIAL":"Xulgado de Paz de Allariz","ID_CONCELLO_SEDE":"32001","ID_PARTIDO_JUDICIAL":"3201","ID_TIPO_UNIDAD":"46","DESC_UNIDAD_JUDICIAL_ES":"Juzgado de Paz de Allariz"}},{"type":"Point","coordinates":[-6.984649378,42.41644671],"properties":{"name":"Servizo común de rexistro e reparto (Instancia e Instrución) de O Barco De Valdeorras","ID_UNIDAD_JUDICIAL":"3200941000","DESC_UNIDAD_JUDICIAL":"Servizo común de rexistro e reparto (Instancia e Instrución) de O Barco De Valdeorras","ID_CONCELLO_SEDE":"32009","ID_PARTIDO_JUDICIAL":"3206","ID_TIPO_UNIDAD":"41","DESC_UNIDAD_JUDICIAL_ES":"Servicio común de registro y reparto (Instancia e Instrucción) de O Barco De Valdeorras"}},{"type":"Point","coordinates":[-8.143259558,42.43156764],"properties":{"name":"Xulgado de Paz de Boborás","ID_UNIDAD_JUDICIAL":"3201346001","DESC_UNIDAD_JUDICIAL":"Xulgado de Paz de Boborás","ID_CONCELLO_SEDE":"32013","ID_PARTIDO_JUDICIAL":"3207","ID_TIPO_UNIDAD":"46","DESC_UNIDAD_JUDICIAL_ES":"Juzgado de Paz de Boborás"}},{"type":"Point","coordinates":[-6.912270489,42.4158443],"properties":{"name":"Xulgado de Paz de Carballeda De Valdeorras","ID_UNIDAD_JUDICIAL":"3201746001","DESC_UNIDAD_JUDICIAL":"Xulgado de Paz de Carballeda De Valdeorras","ID_CONCELLO_SEDE":"32017","ID_PARTIDO_JUDICIAL":"3206","ID_TIPO_UNIDAD":"46","DESC_UNIDAD_JUDICIAL_ES":"Juzgado de Paz de Carballeda De Valdeorras"}},{"type":"Point","coordinates":[-8.233353008,43.48451427],"properties":{"name":"Xulgado do Social Nº 1 de Ferrol","ID_UNIDAD_JUDICIAL":"1503644001","DESC_UNIDAD_JUDICIAL":"Xulgado do Social Nº 1 de Ferrol","ID_CONCELLO_SEDE":"15036","ID_PARTIDO_JUDICIAL":"1503","ID_TIPO_UNIDAD":"44","DESC_UNIDAD_JUDICIAL_ES":"Juzgado de lo Social Nº 1 de Ferrol"}},{"type":"Point","coordinates":[-9.262371769,42.90908224],"properties":{"name":"Xulgado de Paz de Fisterra","ID_UNIDAD_JUDICIAL":"1503746001","DESC_UNIDAD_JUDICIAL":"Xulgado de Paz de Fisterra","ID_CONCELLO_SEDE":"15037","ID_PARTIDO_JUDICIAL":"1507","ID_TIPO_UNIDAD":"46","DESC_UNIDAD_JUDICIAL_ES":"Juzgado de Paz de Fisterra"}},{"type":"Point","coordinates":[-8.582146156,43.24853917],"properties":{"name":"Xulgado de Paz de A Laracha","ID_UNIDAD_JUDICIAL":"1504146001","DESC_UNIDAD_JUDICIAL":"Xulgado de Paz de A Laracha","ID_CONCELLO_SEDE":"15041","ID_PARTIDO_JUDICIAL":"1506","ID_TIPO_UNIDAD":"46","DESC_UNIDAD_JUDICIAL_ES":"Juzgado de Paz de A Laracha"}},{"type":"Point","coordinates":[-8.055871064,43.33437119],"properties":{"name":"Xulgado de Paz de Monfero","ID_UNIDAD_JUDICIAL":"1505046001","DESC_UNIDAD_JUDICIAL":"Xulgado de Paz de Monfero","ID_CONCELLO_SEDE":"15050","ID_PARTIDO_JUDICIAL":"1501","ID_TIPO_UNIDAD":"46","DESC_UNIDAD_JUDICIAL_ES":"Juzgado de Paz de Monfero"}},{"type":"Point","coordinates":[-8.192446569,43.50114268],"properties":{"name":"Xulgado de Paz de Narón","ID_UNIDAD_JUDICIAL":"1505446001","DESC_UNIDAD_JUDICIAL":"Xulgado de Paz de Narón","ID_CONCELLO_SEDE":"15054","ID_PARTIDO_JUDICIAL":"1503","ID_TIPO_UNIDAD":"46","DESC_UNIDAD_JUDICIAL_ES":"Juzgado de Paz de Narón"}},{"type":"Point","coordinates":[-8.887824814,42.78519846],"properties":{"name":"Servizo común de rexistro e reparto (Instancia e Instrución) de Noia","ID_UNIDAD_JUDICIAL":"1505741000","DESC_UNIDAD_JUDICIAL":"Servizo común de rexistro e reparto (Instancia e Instrución) de Noia","ID_CONCELLO_SEDE":"15057","ID_PARTIDO_JUDICIAL":"1505","ID_TIPO_UNIDAD":"41","DESC_UNIDAD_JUDICIAL_ES":"Servicio común de registro y reparto (Instancia e Instrucción) de Noia"}},{"type":"Point","coordinates":[-8.908353033,42.84286919],"properties":{"name":"Xulgado de Paz de Outes","ID_UNIDAD_JUDICIAL":"1506246001","DESC_UNIDAD_JUDICIAL":"Xulgado de Paz de Outes","ID_CONCELLO_SEDE":"15062","ID_PARTIDO_JUDICIAL":"1512","ID_TIPO_UNIDAD":"46","DESC_UNIDAD_JUDICIAL_ES":"Juzgado de Paz de Outes"}},{"type":"Point","coordinates":[-8.362484344,42.90489725],"properties":{"name":"Xulgado de Paz de O Pino","ID_UNIDAD_JUDICIAL":"1506646001","DESC_UNIDAD_JUDICIAL":"Xulgado de Paz de O Pino","ID_CONCELLO_SEDE":"15066","ID_PARTIDO_JUDICIAL":"1508","ID_TIPO_UNIDAD":"46","DESC_UNIDAD_JUDICIAL_ES":"Juzgado de Paz de O Pino"}},{"type":"Point","coordinates":[-7.852924319,43.45091414],"properties":{"name":"Xulgado de Paz de As Pontes De García Rodríguez","ID_UNIDAD_JUDICIAL":"1507046001","DESC_UNIDAD_JUDICIAL":"Xulgado de Paz de As Pontes De García Rodríguez","ID_CONCELLO_SEDE":"15070","ID_PARTIDO_JUDICIAL":"1503","ID_TIPO_UNIDAD":"46","DESC_UNIDAD_JUDICIAL_ES":"Juzgado de Paz de As Pontes De García Rodríguez"}},